_link,_link_main,role,pic,legalName,sme,latitude,longitude,activityType,eucontribution,status,order,organizationType,type,webLink,postalAddress_id,postalAddress_abbreviation,postalAddress_classId,postalAddress_context,postalAddress_description,postalAddress_postalCode,postalAddress_street,postalAddress_city,postalAddress_countryCode_id,postalAddress_countryCode_abbreviation,postalAddress_countryCode_classId,postalAddress_countryCode_context,postalAddress_countryCode_description,postalAddress_countryCode_postalCode,postalAddress_countryCode_street,postalAddress_countryCode_city,postalAddress_countryCode_countryCode
0.metadata.participants.0,0,coordinator,907143904,FONDAZIONE SAFE,false,44.420655,12.1920634,Other,632500,Active,1,,OTH,www.safe-europe.eu,0,,,,,48121,VIA MAGGIORE 73,Ravenna,20000922,IT,,,Italy,,,,
0.metadata.participants.1,0,participant,999584128,AIT AUSTRIAN INSTITUTE OF TECHNOLOGY GMBH,false,48.269137,16.4266762,Research organisation,855250,Active,2,,REC,http://www.ait.ac.at/,0,,,,,1210,GIEFINGGASSE 4,Wien,20000832,AT,,,Austria,,,,
0.metadata.participants.2,0,participant,999556289,BRUHN NEWTECH AS,true,55.6800202,12.5851952,Other,438750,Active,3,,PRC,,0,,,,,1050,KONGENS NYTORV 17 3,KOBENHAVN K,20000875,DK,,,Denmark,,,,
0.metadata.participants.3,0,participant,999988521,"AGENZIA NAZIONALE PER LE NUOVE TECNOLOGIE, L'ENERGIA E LO SVILUPPO ECONOMICO SOSTENIBILE",false,41.9313877,12.4627135,Research organisation,467500,Active,4,,REC,http://www.enea.it,0,,,,,00196,LUNGOTEVERE GRANDE AMMIRAGLIO THAON DI REVEL 76,Roma,20000922,IT,,,Italy,,,,
0.metadata.participants.4,0,participant,907711936,CAFA TECH OU,true,59.4372155,24.7453688,Other,980625,Active,5,,PRC,https://cafatech.com,0,,,,,10612,MADARA 29/1,Tallinn,20000880,EE,,,Estonia,,,,
0.metadata.participants.5,0,participant,991972053,CONSORZIO CREO-CENTRO RICERCHE ELETTRO OTTICHE,false,42.3958927,13.4357622,Research organisation,455750,Active,6,,REC,www.consorziocreo.it,0,,,,,67100,SS 17 LOCALITA BOSCHETTO,L'Aquila,20000922,IT,,,Italy,,,,
0.metadata.participants.6,0,participant,951947040,RE-LION GROUP B.V.,true,52.2556952,6.8515377,Other,498734.4,Active,7,,PRC,re-lion.com,0,,,,,7524 PK,"Vliegveldstraat 100, B517",Enschede,20000973,NL,,,Netherlands,,,,
0.metadata.participants.7,0,thirdParty,999979500,CONSIGLIO NAZIONALE DELLE RICERCHE,false,41.9009424,12.5122989,Research organisation,72562.5,Active,6,,REC,www.cnr.it,0,,,,,00185,PIAZZALE ALDO MORO 7,Roma,20000922,IT,,,Italy,,,,
1.metadata.participants.0,1,coordinator,989360037,OHB SYSTEM AG,false,53.1139736,8.8602392,Private for profit organisation,15866529.29,Active,1,,PRC,www.ohb-system.de,0,,,,,28359,UNIVERSITATSALLEE 27-29,Bremen,20000873,DE,,,Germany,,,,
1.metadata.participants.1,1,participant,920737969,AIM INFRAROT-MODULE GMBH,false,49.135093350000005,9.206243603638637,Private for profit organisation,3783500,Active,2,,PRC,www.aim-ir.com,0,,,,,74072,THERESIENSTRASSE 2,Heilbronn,20000873,DE,,,Germany,,,,
1.metadata.participants.2,1,participant,999809265,AIRBUS DEFENCE AND SPACE SAS,false,43.6044622,1.4442469,Private for profit organisation,12281481.53,Active,3,,PRC,www.airbusdefenceandspace.com,0,,,,,31402,31 RUE DES COSMONAUTES ZI DU PALAYS,Toulouse Cedex,20000890,FR,,,France,,,,
1.metadata.participants.3,1,participant,898635452,AMDC GMBH,true,48.7101182,11.8069746,Other,1020000,Active,4,,PRC,www.amdc.de,0,,,,,84094,AM PANDURENBERG 4,ELSENDORF,20000873,DE,,,Germany,,,,
1.metadata.participants.4,1,participant,932228201,ARIANEGROUP SAS,false,48.99715,1.926708,Private for profit organisation,1540000,Active,5,,PRC,ariane.group,0,,,,,78130,51-61 ROUTE DE VERNEUIL,Les Mureaux,20000890,FR,,,France,,,,
1.metadata.participants.5,1,participant,972664300,BEYOND GRAVITY AUSTRIA GMBH,false,48.1619937,16.3108285,Private for profit organisation,151998.75,Active,6,,PRC,www.beyondgravity.com,0,,,,,1120,STACHEGASSE 13,Wien,20000832,AT,,,Austria,,,,
1.metadata.participants.6,1,participant,952545239,DEIMOS ENGINEERING AND SYSTEMS SLU,false,38.6867422,-4.1034884,Private for profit organisation,2065000,Active,7,,PRC,www.elecnor-deimos.com,0,,,,,13500,C FRANCIA 9 POLIGONO INDUSTRIAL LA NAVA III,PUERTOLLANO,20000883,ES,,,Spain,,,,
1.metadata.participants.7,1,participant,998381813,DIEHL DEFENCE GMBH & CO. KG,false,47.757462700000005,9.188817208348109,Private for profit organisation,1617589.79,Active,8,,PRC,http://www.diehl.com/defence,0,,,,,88662,ALTE NUSSDORFER STRASSE 13,Uberlingen,20000873,DE,,,Germany,,,,
1.metadata.participants.8,1,participant,999981731,DEUTSCHES ZENTRUM FUR LUFT - UND RAUMFAHRT EV,false,50.848867,7.111538417241022,Research organisation,230000,Active,9,,REC,www.dlr.de,0,,,,,51147,LINDER HOHE,Koln,20000873,DE,,,Germany,,,,
1.metadata.participants.9,1,participant,911149131,UAB NOVIAN PRO,false,54.69263,25.2643356,Private for profit organisation,440000,Active,10,,PRC,https://novian.io/novian-pro/,0,,,,,01109,GYNEJU G 14,VILNIUS,20000944,LT,,,Lithuania,,,,
1.metadata.participants.10,1,participant,999984059,FRAUNHOFER GESELLSCHAFT ZUR FORDERUNG DER ANGEWANDTEN FORSCHUNG EV,false,48.1322664,11.5296222,Other,741920.74,Active,11,,REC,www.fraunhofer.de,0,,,,,80686,HANSASTRASSE 27C,Munchen,20000873,DE,,,Germany,,,,
1.metadata.participants.11,1,participant,999905004,GMV AEROSPACE AND DEFENCE SA,false,40.5943864,-3.7084131,Private for profit organisation,2850000,Active,12,,PRC,www.gmv.com,0,,,,,28760,CALLE ISAAC NEWTON PARQUE TECNOLOGICO DE MADRID,Tres Cantos,20000883,ES,,,Spain,,,,
1.metadata.participants.12,1,participant,999951758,HENSOLDT OPTRONICS GMBH,false,48.7832568,10.100716,Private for profit organisation,2750464.55,Active,13,,PRC,www.hensoldt.net,0,,,,,73447,CARL ZEISS STRASSE 22,Oberkochen,20000873,DE,,,Germany,,,,
1.metadata.participants.13,1,participant,999967084,INDUSTRIEANLAGEN BETRIEBSGESELLSCHAFT MBH,false,48.0643823,11.6675042,Private for profit organisation,289813.49,Active,14,,PRC,www.iabg.de,0,,,,,85521,EINSTEINSTRASSE 20,Ottobrunn,20000873,DE,,,Germany,,,,
1.metadata.participants.14,1,participant,999694708,ISTITUTO AFFARI INTERNAZIONALI,true,41.8995787,12.4783776,Research organisation,210000,Active,15,,REC,www.iai.it,0,,,,,00186,VIA DEI MONTECATINI  17,Roma,20000922,IT,,,Italy,,,,
1.metadata.participants.15,1,participant,999959130,INDRA SISTEMAS SA,false,40.52917035,-3.6414349825450647,Private for profit organisation,2140000,Active,16,,PRC,www.indracompany.com,0,,,,,28108,AVENIDA DE BRUSELAS 35,Alcobendas Madrid,20000883,ES,,,Spain,,,,
1.metadata.participants.16,1,participant,996235688,INTRACOM DEFENSE AE,false,38.9953683,21.9877132,Private for profit organisation,659875,Active,17,,PRC,www.intracomdefense.com,0,,,,,19400,NEW ROAD PEANIA 21 KM MARKOPOULOU,KOROPI,20000902,EL,,,Greece,,,,
1.metadata.participants.17,1,participant,904156207,ISAWARE OY,true,60.2036887,24.9612813,Other,2176750,Active,18,,PRC,www.isaware.fi,0,,,,,00560,ERIK PALMENIN AUKIO 1,Helsinki,20000885,FI,,,Finland,,,,
1.metadata.participants.18,1,participant,903174373,KONGSBERG DEFENCE & AEROSPACE AS,false,59.6569434,9.6446815,Private for profit organisation,1230000,Active,19,,PRC,www.kongsberg.com,0,,,,,3616,KIRKEGARDSVEIEN 45,Kongsberg,20000974,NO,,,Norway,,,,
1.metadata.participants.19,1,participant,998627417,LEONARDO - SOCIETA PER  AZIONI,false,41.9182673,12.4690749,Private for profit organisation,6141555.72,Active,20,,PRC,www.leonardo.com,0,,,,,00195,PIAZZA MONTE GRAPPA 4,Roma,20000922,IT,,,Italy,,,,
1.metadata.participants.20,1,participant,936720271,LYNRED,false,48.71683425,2.200578838130138,Private for profit organisation,2000000,Active,21,,PRC,www.lynred.com,0,,,,,91120,AVENUE DE LA VAUVE,Palaiseau,20000890,FR,,,France,,,,
1.metadata.participants.21,1,participant,998552824,MBDA FRANCE,false,48.7811049,2.2619632,Private for profit organisation,400000,Active,22,,PRC,www.mbda-systems.com,0,,,,,92358,1 AVENUE REAUMUR,Le Plessis-Robinson,20000890,FR,,,France,,,,
1.metadata.participants.22,1,participant,999987066,STICHTING KONINKLIJK NEDERLANDS LUCHT - EN RUIMTEVAARTCENTRUM,false,52.3451042,4.8438265,Research organisation,740000,Active,23,,REC,www.nlr.nl,0,,,,,1059 CM,ANTHONY FOKKERWEG 2,Amsterdam,20000973,NL,,,Netherlands,,,,
1.metadata.participants.23,1,participant,999994438,OFFICE NATIONAL D'ETUDES ET DE RECHERCHES AEROSPATIALES,false,48.7095551,2.2233675,Research organisation,519740,Active,24,,REC,www.onera.fr,0,,,,,91120,CHEMIN DE LA HUNIERE,Palaiseau,20000890,FR,,,France,,,,
1.metadata.participants.24,1,participant,885074270,RHEINMETALL NORWAY AS,false,59.2179475,10.4532654,Private for profit organisation,990000,Active,25,,PRC,,0,,,,,3133,STEINKLOSSVEIEN 14,DUKEN,20000974,NO,,,Norway,,,,
1.metadata.participants.25,1,participant,990406085,SCIENCE AND TECHNOLOGY BV,true,52.0143249,4.3761556,Other,330000,Active,26,,PRC,https://www.stcorp.nl/,0,,,,,2616 LR,OLOF PALMESTRAAT 14,Delft,20000973,NL,,,Netherlands,,,,
1.metadata.participants.26,1,participant,899285837,SENER AEROESPACIAL SOCIEDAD ANONIMA,false,43.3270799,-3.0171911467617747,Private for profit organisation,5062500.05,Active,27,,PRC,www.aeroespacial.sener,0,,,,,48930,AVDA ZUGAZARTE 56,Las Arenas,20000883,ES,,,Spain,,,,
1.metadata.participants.27,1,participant,998945674,SPACEBEL SA,false,50.5996947,5.566456642765143,Private for profit organisation,1000000,Active,28,,PRC,,0,,,,,4031,RUE DES CHASSEURS ARDENNAIS   6,Liege Angleur,20000839,BE,,,Belgium,,,,
1.metadata.participants.28,1,participant,924631840,ST ANALYTICS GMBH,true,48.1214771,11.5952108,Other,308125,Active,29,,PRC,www.st-analytics.de,0,,,,,81669,FRANZISKANERSTRASSE 9A,Munchen,20000873,DE,,,Germany,,,,
1.metadata.participants.29,1,participant,918136526,SYBILLA TECHNOLOGIES SPOLKA Z OGRANICZONA ODPOWIEDZIALNOSCIA,true,53.0956342,18.081248050840248,Other,1055000,Active,30,,PRC,www.sybillatechnologies.com,0,,,,,85-023,UL. TORUNSKA 59,Bydgoszcz,20000986,PL,,,Poland,,,,
1.metadata.participants.30,1,participant,999908205,THALES ALENIA SPACE FRANCE SAS,false,43.5476997,1.3941094,Private for profit organisation,6649995,Active,31,,PRC,www.thalesaleniaspace.com,0,,,,,31100,AVENUE JEAN FRANCOIS CHAMPOLLION 26,Toulouse,20000890,FR,,,France,,,,
1.metadata.participants.31,1,participant,999488195,THALES ALENIA SPACE ITALIA SPA,false,41.9359863,12.6088338,Private for profit organisation,2588000,Active,32,,PRC,www.thalesaleniaspace.com,0,,,,,00131,VIA SACCOMURO 24,Roma,20000922,IT,,,Italy,,,,
1.metadata.participants.32,1,participant,999939051,TELESPAZIO SPA,false,41.9294632,12.5768065,Private for profit organisation,1699437.28,Active,33,,PRC,www.telespazio.com,0,,,,,00156,VIA TIBURTINA 965,Roma,20000922,IT,,,Italy,,,,
1.metadata.participants.33,1,participant,999958936,TERMA AS,false,56.234101,10.241841,Private for profit organisation,220000,Active,34,,PRC,,0,,,,,8520,HOVMARKEN 4,Lystrup,20000875,DK,,,Denmark,,,,
1.metadata.participants.34,1,participant,999961555,THALES LAS FRANCE SAS,false,48.7906419,1.9741698,Private for profit organisation,1350085,Active,35,,PRC,www.thalesgroup.com,0,,,,,78990,AVENUE GAY LUSSAC 2,Elancourt,20000890,FR,,,France,,,,
1.metadata.participants.35,1,participant,999480241,THALES NEDERLAND BV,false,52.2483001,6.7728129,Private for profit organisation,1101600,Active,36,,PRC,www.thales-nederland.nl,0,,,,,7554 RR,ZUIDELIJKE HAVENWEG 40,Hengelo Ov,20000973,NL,,,Netherlands,,,,
1.metadata.participants.36,1,participant,999988909,NEDERLANDSE ORGANISATIE VOOR TOEGEPAST NATUURWETENSCHAPPELIJK ONDERZOEK TNO,false,52.0822233,4.3257144,Research organisation,1160000,Active,37,,REC,www.tno.nl,0,,,,,2595 DA,ANNA VAN BUERENPLEIN 1,Den Haag,20000973,NL,,,Netherlands,,,,
1.metadata.participants.37,1,participant,999630009,UNIVERSITAET DER BUNDESWEHR MUENCHEN,false,48.075722,11.6513008,HSE,752000,Active,38,,HES,www.unibw.de,0,,,,,85579,WERNER HEISENBERG WEG 39,Neubiberg,20000873,DE,,,Germany,,,,
1.metadata.participants.38,1,thirdParty,891438440,OHB DIGITAL CONNECT GMBH,false,53.0758196,8.8071646,Private for profit organisation,3075095.06,Active,1,,PRC,www.ohb.de/digital,0,,,,,28359,MANFRED-FUCHS-PLATZ 2-4,Bremen,20000873,DE,,,Germany,,,,
1.metadata.participants.39,1,thirdParty,898508382,OHB HELLAS MONOPROSOPI ETAIREIA PERIORISMENIS EFTHINIS,false,38.045574349999995,23.805270162605616,Private for profit organisation,400000,Active,1,,PRC,http://www.ohb-hellas.gr,0,,,,,151 24,IMVROU 1,MAROUSI,20000902,EL,,,Greece,,,,
1.metadata.participants.40,1,thirdParty,999653095,BEYOND GRAVITY SWEDEN AB,false,57.7063369,11.9441986,Private for profit organisation,81943.75,Active,6,,PRC,,0,,,,,405 15,SOLHUSGATAN 11,Goteborg,20001001,SE,,,Sweden,,,,
1.metadata.participants.41,1,thirdParty,990040007,MBDA ITALIA SPA,false,41.9323544,12.6143339,Private for profit organisation,150000,Active,22,,PRC,http://www.mbda-systems.com/,0,,,,,00131,VIA MONTE FLAVIO 45,Roma,20000922,IT,,,Italy,,,,
1.metadata.participants.42,1,thirdParty,997545285,MBDA DEUTSCHLAND GMBH,false,48.5702854,11.2149263052905,Private for profit organisation,180000,Active,22,,PRC,www.mbda-systems.com,0,,,,,86529,HAGENAUER FORST 27,Schrobenhausen,20000873,DE,,,Germany,,,,
2.metadata.participants.0,2,coordinator,890612291,AGRICLIMA CONSULTING AB,true,59.6749712,14.5208584,Other,461082.75,Active,1,,PRC,www.agriclima.eu,0,,,,,265 74,GLASBLASAREGATAN 23 D,HYLLINGE,20001001,SE,,,Sweden,,,,
2.metadata.participants.1,2,participant,888362279,SOTIRIA TECHNOLOGY MONOPROSOPI IDIOTIKI KEFALAIOUCHIKI ETAIREIA,true,38.9953683,21.9877132,Other,372500,Active,2,,PRC,www.sotiria.tech,0,,,,,104 31,9 OMONIA SQUARE,ATHENS,20000902,EL,,,Greece,,,,
2.metadata.participants.2,2,participant,951630432,CONSORZIO PER L'INNOVAZIONE E LA BIOECONOMIA,false,41.9244045,12.4521318,Research organisation,290250,Active,3,,REC,www.inbio.it,0,,,,,00100,CENTRO RICERCHE CASACCIA FRAZIONE SANTA MARIA GALERIA,ROMA,20000922,IT,,,Italy,,,,
2.metadata.participants.3,2,participant,999894916,UNIVERSIDADE DO PORTO,false,41.146511399999994,-8.615766789175847,HSE,267472.5,Active,4,,HES,www.up.pt,0,,,,,4099-002,PRACA GOMES TEIXEIRA,Porto,20000990,PT,,,Portugal,,,,
2.metadata.participants.4,2,participant,999663474,FH OO FORSCHUNGS & ENTWICKLUNGS GMBH,false,48.165732000000006,13.984416798172166,Research organisation,372681.25,Active,5,,REC,www.fh-ooe.at,0,,,,,4600,ROSEGGERSTRASSE 15,Wels,20000832,AT,,,Austria,,,,
2.metadata.participants.5,2,participant,884099420,PRINSUS I.K.E. TECHNOVLASTOS,true,38.9953683,21.9877132,Other,268319.8,Active,6,,PRC,www.prinsus.eu,0,,,,,15780,IROON POLYTECHNEIOU 9,"ZOGRAFOU, ATHENS",20000902,EL,,,Greece,,,,
2.metadata.participants.6,2,participant,995413613,BTG BIOLIQUIDS BV,true,52.1709478,6.8087553,Other,381481.7,Active,7,,PRC,http://www.btg-bioliquids.com,0,,,,,7545 PN,JOSINK ESWEG 28,ENSCHEDE,20000973,NL,,,Netherlands,,,,
3.metadata.participants.0,3,coordinator,987804060,SATWAYS-OLOKLIROMENES LYSEIS ASFALEIAS KAI AMYNAS-IDIOTIKI EPICHEIRISI PAROCHIS YPIRESION ASFALEIAS (IEPYA)-ETAIREIA PERIORISMENIS EFTHYNIS,true,38.9953683,21.9877132,Other,949249.99,Active,1,,PRC,www.satways.net,0,,,,,141 22,MEGALOU KONSTANTINOU 15,IRAKLEIO,20000902,EL,,,Greece,,,,
3.metadata.participants.1,3,participant,893722305,TRAQBEAT TECHNOLOGIES IDIOTIKI KEFA,true,38.9953683,21.9877132,Other,697690.89,Active,2,,PRC,www.traqbeat.com,0,,,,,700 13,N.PLASTIRA 100,HERAKLION,20000902,EL,,,Greece,,,,
3.metadata.participants.2,3,participant,996237822,IQUADRAT INFORMATICA SL,true,41.40114385,2.1468427996553974,Other,399302.33,Active,3,,PRC,www.iquadrat.com,0,,,,,08006,"CALLE DOCTOR RIZAL 10, P.BJ2 PTA 2",Barcelona,20000883,ES,,,Spain,,,,
3.metadata.participants.3,3,participant,958304323,INSTITUT PO OTBRANA,false,42.6978634,23.3221789,Research organisation,433331.25,Active,4,,REC,http://di.mod.bg,0,,,,,1574,prof. Tsvetan Lazarov blvd.  2,Sofia,20000841,BG,,,Bulgaria,,,,
3.metadata.participants.4,3,participant,898948956,OASI 233 SL,true,38.3564551,-0.4838657,Other,402376.15,Active,5,,PRC,www.cfoasi.com,0,,,,,03012,GARBINET 84 ENTLO IZQDA,ALICANTE,20000883,ES,,,Spain,,,,
3.metadata.participants.5,3,participant,884566960,INCISIO AB,true,59.4123826,18.0136273,Other,311451.09,Active,6,,PRC,,0,,,,,18239,ASEVAGEN 1,DANDERYD,20001001,SE,,,Sweden,,,,
4.metadata.participants.0,4,coordinator,998453011,RINA CONSULTING - CENTRO SVILUPPO MATERIALI SPA,false,41.706214900000006,12.44616005667443,Private for profit organisation,635675.6,Active,1,,PRC,www.c-s-m.it,0,,,,,00128,VIA DI CASTEL ROMANO 100,Roma,20000922,IT,,,Italy,,,,
4.metadata.participants.1,4,participant,891954480,MOBILITY ION TECHNOLOGIES SL,true,41.6221279,-4.7813957,Other,563825.65,Active,2,,PRC,www.miontechnologies.com,0,,,,,47195,C/ EL JUNCAL 3 ARROYO DE LA ENCOMIE,Arroyo de la Encomienda,20000883,ES,,,Spain,,,,
4.metadata.participants.2,4,participant,938969701,SENSICHIPS SRL,true,41.5942016,12.6485765,Other,455158.95,Active,3,,PRC,www.sensichips.com,0,,,,,04011,VIA DELLE VALLI 46,Aprilia,20000922,IT,,,Italy,,,,
4.metadata.participants.3,4,participant,900446345,T4I ENGINEERING IKE*T4I ENGINEERING PRIVATE COMPANY,true,37.65018645,24.024606188545665,Other,250806.87,Active,4,,PRC,www.t4ieng.com,0,,,,,163 46,ERGATON TYPOU 10,ILIOUPOLI,20000902,EL,,,Greece,,,,
4.metadata.participants.4,4,participant,999981731,DEUTSCHES ZENTRUM FUR LUFT - UND RAUMFAHRT EV,false,50.848867,7.111538417241022,Research organisation,520072.61,Active,5,,REC,www.dlr.de,0,,,,,51147,LINDER HOHE,Koln,20000873,DE,,,Germany,,,,
4.metadata.participants.5,4,participant,999979500,CONSIGLIO NAZIONALE DELLE RICERCHE,false,41.9009424,12.5122989,Research organisation,378256.4,Active,6,,REC,www.cnr.it,0,,,,,00185,PIAZZALE ALDO MORO 7,Roma,20000922,IT,,,Italy,,,,
4.metadata.participants.6,4,participant,996235688,INTRACOM DEFENSE AE,false,38.9953683,21.9877132,Private for profit organisation,456197.68,Active,7,,PRC,www.intracomdefense.com,0,,,,,19400,NEW ROAD PEANIA 21 KM MARKOPOULOU,KOROPI,20000902,EL,,,Greece,,,,
4.metadata.participants.7,4,participant,998994077,IKNOWHOW SA,true,39.938886,-80.011512,Other,396264.53,Active,8,,PRC,www.iknowhow.com,0,,,,,154 51,LEOFOROS KIFISIAS 340,ATHINA,20000902,EL,,,Greece,,,,
4.metadata.participants.8,4,participant,899308826,UAV NAVIGATION SLU,true,40.5519027,-3.614303029371002,Other,451482.61,Active,9,,PRC,www.uavnavigation.com,0,,,,,28703,AVENIDA PIRINEOS 7 LOCAL B,San Sebastian de los Reyes,20000883,ES,,,Spain,,,,
4.metadata.participants.9,4,participant,954502214,ADDITESS ADVANCED INTEGRATED TECHNOLOGY SOLUTIONS & SERVICES LTD,true,35.1506987,33.314700912555736,Other,300494.66,Active,10,,PRC,www.additess.com,0,,,,,2064,VYZANTIOU 40 3RD FLOOR FLAT OFFICE 303/304,Lefkosia,20000871,CY,,,Cyprus,,,,
4.metadata.participants.10,4,participant,999848647,UNIVERSIDAD DE OVIEDO,false,43.3618239,-5.8478735,HSE,350584.59,Active,11,,HES,www.uniovi.es,0,,,,,33003,CALLE SAN FRANCISCO 3,OVIEDO,20000883,ES,,,Spain,,,,
4.metadata.participants.11,4,participant,893663911,FLYSIGHT SRL,true,43.5507411,10.3091456,Other,236608.02,Active,12,,PRC,https://www.flysight.it/,0,,,,,57121,VIA AURELIO LAMPREDI 45,Livorno,20000922,IT,,,Italy,,,,
5.metadata.participants.0,5,coordinator,880161317,VOP NOVAKY AS,false,48.7379265,18.5471945,Private for profit organisation,1964616.3,Active,1,,PRC,,0,,,,,972 71,DUKLIANSKA 60,Novaky,20001005,SK,,,Slovakia,,,,
6.metadata.participants.0,6,coordinator,901314301,KNDS FRANCE,false,48.8035403,2.1266886,Private for profit organisation,2261746.99,Active,1,,PRC,www.nexter-group.fr,0,,,,,78034,13 ROUTE DE LA MINIERE,Versailles,20000890,FR,,,France,,,,
6.metadata.participants.1,6,participant,999610124,INSTITUT FRANCO-ALLEMAND DE RECHERCHES DE SAINT LOUIS,false,47.5912487,7.5622412,Research organisation,3491703.21,Active,2,,REC,www.isl.eu,0,,,,,68301,RUE DU GENERAL CASSAGNOU 5,Saint-Louis,20000890,FR,,,France,,,,
6.metadata.participants.2,6,participant,998381813,DIEHL DEFENCE GMBH & CO. KG,false,47.757462700000005,9.188817208348109,Private for profit organisation,3637555.63,Active,3,,PRC,http://www.diehl.com/defence,0,,,,,88662,ALTE NUSSDORFER STRASSE 13,Uberlingen,20000873,DE,,,Germany,,,,
6.metadata.participants.3,6,participant,998381522,NAVAL GROUP,false,48.8514324,2.2904274,Private for profit organisation,748325.58,Active,4,,PRC,www.naval-group.com,0,,,,,75015,RUE DU DOCTEUR FINLAY 40-42,Paris,20000890,FR,,,France,,,,
6.metadata.participants.4,6,participant,999984059,FRAUNHOFER GESELLSCHAFT ZUR FORDERUNG DER ANGEWANDTEN FORSCHUNG EV,false,48.1322664,11.5296222,Other,1259992.46,Active,5,,REC,www.fraunhofer.de,0,,,,,80686,HANSASTRASSE 27C,Munchen,20000873,DE,,,Germany,,,,
6.metadata.participants.5,6,participant,986068439,OPTIMAL STRUCTURAL SOLUTIONS LDA,true,38.7413139,-9.3731631,Other,922052.32,Active,6,,PRC,www.optimal.pt,0,,,,,2645-449,RUA DO MOINHO VERMELHO N 50,Alcabideche,20000990,PT,,,Portugal,,,,
6.metadata.participants.6,6,participant,999698006,VON KARMAN INSTITUTE FOR FLUID DYNAMICS,false,50.75496765,4.386305156499031,Research organisation,648479.64,Active,7,,REC,www.vki.ac.be,0,,,,,1640,"Waterloose Steenweg, 72",Sint-Genesius-Rode,20000839,BE,,,Belgium,,,,
6.metadata.participants.7,6,participant,936578942,"EXPLOMET GALKA, SZULC SPOLKA KOMANDYTOWA",true,50.607091,17.9703124,Other,518403.99,Active,8,,PRC,www.explomet.pl,0,,,,,45-641,"UL. OSWIECIMSKA, NR 100H",Opole,20000986,PL,,,Poland,,,,
6.metadata.participants.8,6,participant,893359719,MARDUK TECHNOLOGIES OU,true,59.3978817,24.6577591,Other,260125,Active,9,,PRC,www.marduk.ee,0,,,,,12618,AKADEEMIA TEE 21/6,Tallinn,20000880,EE,,,Estonia,,,,
6.metadata.participants.9,6,participant,892662580,KNDS AMMO ITALY SPA,false,41.727033,13.0041576,Private for profit organisation,191996.52,Active,10,,PRC,www.simmeldifesa.com,0,,,,,00034,VIA ARIANA KM 5 200,Colleferro,20000922,IT,,,Italy,,,,
6.metadata.participants.10,6,participant,990040007,MBDA ITALIA SPA,false,41.9323544,12.6143339,Private for profit organisation,151809.16,Active,11,,PRC,http://www.mbda-systems.com/,0,,,,,00131,VIA MONTE FLAVIO 45,Roma,20000922,IT,,,Italy,,,,
6.metadata.participants.11,6,participant,958304323,INSTITUT PO OTBRANA,false,42.6978634,23.3221789,Research organisation,102130.67,Active,12,,REC,http://di.mod.bg,0,,,,,1574,prof. Tsvetan Lazarov blvd.  2,Sofia,20000841,BG,,,Bulgaria,,,,
6.metadata.participants.12,6,participant,954502214,ADDITESS ADVANCED INTEGRATED TECHNOLOGY SOLUTIONS & SERVICES LTD,true,35.1506987,33.314700912555736,Other,67338.93,Active,13,,PRC,www.additess.com,0,,,,,2064,VYZANTIOU 40 3RD FLOOR FLAT OFFICE 303/304,Lefkosia,20000871,CY,,,Cyprus,,,,
6.metadata.participants.13,6,participant,893906605,KNDS AMMO FRANCE,false,48.7852298,2.1055172,Private for profit organisation,657316.07,Active,14,,PRC,https://www.knds.fr/en/our-brand/nexter-munitions,0,,,,,78000,13 ROUTE DE LA MINIERE,Versailles,20000890,FR,,,France,,,,
7.metadata.participants.0,7,coordinator,885372351,PEGASUS RESEARCH & DEVELOPMENT GMBH,true,47.0644882,15.0850032,Other,1209147.27,Active,1,,PRC,,0,,,,,8580,RATHAUSPLATZ 1-4/B08,KOFLACH,20000832,AT,,,Austria,,,,
7.metadata.participants.1,7,participant,952429809,CY.R.I.C CYPRUS RESEARCH AND INNOVATION CENTER LTD,true,35.1506987,33.314700912555736,Other,623563.97,Active,2,,PRC,http://www.cyric.eu,0,,,,,1060,AGIAS ELENIS 6 AGIAS ELENIS BUILDING 4TH FLOOR FLAT OFFICE 43,Lefkosia,20000871,CY,,,Cyprus,,,,
7.metadata.participants.2,7,participant,972082494,RTA RAIL TEC ARSENAL FAHRZEUGVERSUCHSANLAGE GMBH,false,48.270543700000005,16.427826455237593,Research organisation,676567.88,Active,3,,REC,www.rta.eu,0,,,,,1210,PAUKERWERKSTRASSE 3,Wien,20000832,AT,,,Austria,,,,
7.metadata.participants.3,7,participant,886973821,DIODON DRONE TECHNOLOGY,true,43.5443038,1.5129807,Other,230694.77,Active,4,,PRC,www.diodon-drone.com,0,,,,,31670,436 RUE PIERRE ET MARIE CURIE,LABEGE,20000890,FR,,,France,,,,
7.metadata.participants.4,7,participant,973080139,CEIIA - CENTRO DE ENGENHARIA E DESENVOLVIMENTO (ASSOCIACAO),false,41.17269245,-8.679932158589875,Research organisation,504340,Active,5,,REC,https://www.ceiia.com/,0,,,,,4470-017,AVENIDA DOM AFONSO HENRIQUES 1825,Matosinhos,20000990,PT,,,Portugal,,,,
7.metadata.participants.5,7,participant,908426244,UBIQ AEROSPACE AS,true,63.431328,10.401105,Other,717650,Active,6,,PRC,www.ubiqaerospace.com,0,,,,,7011,KRAMBUGATA 2,TRONDHEIM,20000974,NO,,,Norway,,,,
8.metadata.participants.0,8,coordinator,936058149,"GUARDIARIS, RACUNALNISKE APLIKACIJE IN SIMULACIJE D.O.O",true,46.0684333,14.5016786203125,Other,933290.74,Active,1,,PRC,http://www.guardiaris.com,0,,,,,1000,KAMNISKA ULICA 39A,LJUBLJANA,20001004,SI,,,Slovenia,,,,
8.metadata.participants.1,8,participant,892228602,ITEC TONTECHNIK UND INDUSTRIE-ELEKTRONIK GESELLSCHAFT MBH,true,47.07888505,15.64734973541125,Other,270202.91,Active,2,,PRC,www.itec-audio.com,0,,,,,8200,LASSNITZTHAL 300,Gleisdorf,20000832,AT,,,Austria,,,,
8.metadata.participants.2,8,participant,894053948,CONTINEST TECHNOLOGIES ZMR,true,47.6960419,19.034365859987506,Other,622700.68,Active,3,,PRC,http://www.continest.com/,0,,,,,2000,FO TER 14 3/A,SZENTENDRE,20000913,HU,,,Hungary,,,,
8.metadata.participants.3,8,participant,999611288,SMARTEX SRL,true,43.907519,11.1420878,Other,398266.86,Active,4,,PRC,www.smartex.it,0,,,,,59100,VIA DELLA CROCE ROSSA 82,Prato,20000922,IT,,,Italy,,,,
9.metadata.participants.0,9,coordinator,999954862,THALES DMS FRANCE SAS,false,48.7906419,1.9741698,Private for profit organisation,1499875,Active,1,,PRC,,0,,,,,78990,2 AVENUE GAY LUSSAC,Elancourt,20000890,FR,,,France,,,,
9.metadata.participants.1,9,participant,986464587,ATLAS ELEKTRONIK GMBH,false,53.0587523,8.8996576,Private for profit organisation,1239632,Active,2,,PRC,www.atlas-elektronik.com,0,,,,,28309,SEBALDSBRUCKER HEERSTRASSE 235,Bremen,20000873,DE,,,Germany,,,,
9.metadata.participants.2,9,participant,999444351,KONGSBERG MARITIME AS,false,59.601511,9.636119,Private for profit organisation,2305000,Active,3,,PRC,https://www.kongsberg.com/maritime/,0,,,,,3605,KIRKEGAARDSVEIEN 45,KONGSBERG,20000974,NO,,,Norway,,,,
9.metadata.participants.3,9,participant,999988909,NEDERLANDSE ORGANISATIE VOOR TOEGEPAST NATUURWETENSCHAPPELIJK ONDERZOEK TNO,false,52.0822233,4.3257144,Research organisation,1685072,Active,4,,REC,www.tno.nl,0,,,,,2595 DA,ANNA VAN BUERENPLEIN 1,Den Haag,20000973,NL,,,Netherlands,,,,
9.metadata.participants.4,9,participant,998627417,LEONARDO - SOCIETA PER  AZIONI,false,41.9182673,12.4690749,Private for profit organisation,1559756.56,Active,5,,PRC,www.leonardo.com,0,,,,,00195,PIAZZA MONTE GRAPPA 4,Roma,20000922,IT,,,Italy,,,,
9.metadata.participants.5,9,participant,999757176,MARION TECHNOLOGIES S.A.S.,true,43.0794025,1.6514261,Other,1899366,Active,6,,PRC,http://www.mariontechnologies.com,0,,,,,09340,"PARC TECHNOLOGIQUE DELTA SUD
55 RUE LOUIS PASTEUR",VERNIOLLE,20000890,FR,,,France,,,,
9.metadata.participants.6,9,participant,991779993,PI CERAMIC GMBH,false,50.80679035,11.92304379556962,Private for profit organisation,813750,Active,7,,PRC,https://www.piceramic.de/de/,0,,,,,07589,LINDENSTRASSE,Lederhose,20000873,DE,,,Germany,,,,
9.metadata.participants.7,9,participant,999751938,THALES,false,48.8208381,2.2332588,Private for profit organisation,1203973.75,Active,8,,PRC,www.thalesgroup.com,0,,,,,92190,4 RUE DE LA VERRERIE,MEUDON,20000890,FR,,,France,,,,
9.metadata.participants.8,9,participant,999867271,UNIVERSITE DE TOURS,false,47.3836761,0.6731940509022188,HSE,1407600,Active,9,,HES,www.univ-tours.fr,0,,,,,37020,RUE DU PLAT D ETAIN 60,Tours,20000890,FR,,,France,,,,
9.metadata.participants.9,9,participant,999984059,FRAUNHOFER GESELLSCHAFT ZUR FORDERUNG DER ANGEWANDTEN FORSCHUNG EV,false,48.1322664,11.5296222,Other,1500205.75,Active,10,,REC,www.fraunhofer.de,0,,,,,80686,HANSASTRASSE 27C,Munchen,20000873,DE,,,Germany,,,,
9.metadata.participants.10,9,participant,929601829,INNOVATION IN RESEARCH & ENGINEERING SOLUTIONS,true,50.850961,4.4021946,Other,249875,Active,11,,PRC,www.innovation-res.eu,0,,,,,1030,BOULEVARD AUGUSTE REYERS 80,SCHAERBEEK,20000839,BE,,,Belgium,,,,
9.metadata.participants.11,9,participant,999971837,INSTITUT JOZEF STEFAN,false,46.0421272,14.4883111,Research organisation,1202125,Active,12,,REC,www.ijs.si,0,,,,,1000,Jamova 39,Ljubljana,20001004,SI,,,Slovenia,,,,
9.metadata.participants.12,9,participant,999990655,DANMARKS TEKNISKE UNIVERSITET,false,55.786591,12.525256,HSE,1199962.5,Active,13,,HES,www.dtu.dk,0,,,,,2800,ANKER ENGELUNDS VEJ 101,Kongens Lyngby,20000875,DK,,,Denmark,,,,
9.metadata.participants.13,9,participant,945827019,OPTICS11 BV,true,52.3058047,4.943967,Other,1498300,Active,14,,PRC,www.optics11.com,0,,,,,1101 BM,HETTENHEUVELWEG 37,Amsterdam,20000973,NL,,,Netherlands,,,,
9.metadata.participants.14,9,thirdParty,999997930,CENTRE NATIONAL DE LA RECHERCHE SCIENTIFIQUE CNRS,false,48.8476256,2.2640027,Research organisation,66956.25,Active,9,,REC,www.cnrs.fr,0,,,,,75794,RUE MICHEL ANGE 3,Paris,20000890,FR,,,France,,,,
10.metadata.participants.0,10,coordinator,999831575,ECOLE ROYALE MILITAIRE - KONINKLIJKE MILITAIRE SCHOOL,false,50.8434144,4.3916199,HSE,905916.25,Active,1,,HES,www.rma.ac.be,0,,,,,1000,Avenue de la Renaissance 30,Bruxelles / Brussel,20000839,BE,,,Belgium,,,,
10.metadata.participants.1,10,participant,999981828,GOTTFRIED WILHELM LEIBNIZ UNIVERSITAET HANNOVER,false,52.38319165,9.72004974278656,HSE,752500,Active,2,,HES,https://www.uni-hannover.de/en/,0,,,,,30167,WELFENGARTEN 1,Hannover,20000873,DE,,,Germany,,,,
10.metadata.participants.2,10,participant,900446345,T4I ENGINEERING IKE*T4I ENGINEERING PRIVATE COMPANY,true,37.65018645,24.024606188545665,Other,526500,Active,3,,PRC,www.t4ieng.com,0,,,,,163 46,ERGATON TYPOU 10,ILIOUPOLI,20000902,EL,,,Greece,,,,
10.metadata.participants.3,10,participant,998802502,ETHNIKO KENTRO EREVNAS KAI TECHNOLOGIKIS ANAPTYXIS,false,38.9953683,21.9877132,Research organisation,433375,Active,4,,REC,WWW.CERTH.GR,0,,,,,57001,CHARILAOU THERMI ROAD 6 KM,Thermi Thessaloniki,20000902,EL,,,Greece,,,,
10.metadata.participants.4,10,participant,999842536,TALLINNA TEHNIKAÜLIKOOL,false,59.3946145,24.6695367,HSE,363750,Active,5,,HES,www.taltech.ee,0,,,,,12616,EHITAJATE TEE 5,Tallinn,20000880,EE,,,Estonia,,,,
10.metadata.participants.5,10,participant,966006220,BUNDESMINISTERIUM DER VERTEIDIGUNG,false,50.705182949999994,7.0463339603123405,Other,327277.5,Active,6,,PUB,http://www.bmvg.de/portal/a/bmvg,0,,,,,53123,FONTAINENGRABEN 150,Bonn,20000873,DE,,,Germany,,,,
10.metadata.participants.6,10,participant,916943523,EXUS SOFTWARE MONOPROSOPI ETAIRIA PERIORISMENIS EVTHINIS,true,37.971565,23.72658761894293,Other,451250,Active,7,,PRC,https://www.exus.ai/,0,,,,,118 54,THEANOUS 15,ATHENS,20000902,EL,,,Greece,,,,
10.metadata.participants.7,10,participant,923648260,INTERSCIENCE BV,true,51.6109708,4.7195162,Other,568415,Active,8,,PRC,www.interscience.nl,0,,,,,4823 AA,TINSTRAAT 16,Breda,20000973,NL,,,Netherlands,,,,
11.metadata.participants.0,11,coordinator,999994438,OFFICE NATIONAL D'ETUDES ET DE RECHERCHES AEROSPATIALES,false,48.7095551,2.2233675,Research organisation,950063.16,Active,1,,REC,www.onera.fr,0,,,,,91120,CHEMIN DE LA HUNIERE,Palaiseau,20000890,FR,,,France,,,,
11.metadata.participants.1,11,participant,953490213,ERGON RESEARCH SRL,true,43.80627335,11.23139413640399,Other,837377.21,Active,2,,PRC,https://www.ergonresearch.it/,0,,,,,50127,VIA GIUSEPPE CAMPANI 50,Firenze,20000922,IT,,,Italy,,,,
11.metadata.participants.2,11,participant,999981731,DEUTSCHES ZENTRUM FUR LUFT - UND RAUMFAHRT EV,false,50.848867,7.111538417241022,Research organisation,950002.4,Active,3,,REC,www.dlr.de,0,,,,,51147,LINDER HOHE,Koln,20000873,DE,,,Germany,,,,
11.metadata.participants.3,11,participant,999698006,VON KARMAN INSTITUTE FOR FLUID DYNAMICS,false,50.75496765,4.386305156499031,Research organisation,799974.1,Active,4,,REC,www.vki.ac.be,0,,,,,1640,"Waterloose Steenweg, 72",Sint-Genesius-Rode,20000839,BE,,,Belgium,,,,
11.metadata.participants.4,11,participant,998552824,MBDA FRANCE,false,48.7811049,2.2619632,Private for profit organisation,247432.59,Active,5,,PRC,www.mbda-systems.com,0,,,,,92358,1 AVENUE REAUMUR,Le Plessis-Robinson,20000890,FR,,,France,,,,
11.metadata.participants.5,11,participant,950405322,ABGI FRANCE,true,45.735643,4.8155698,Other,201109.01,Active,6,,PRC,https://abgi-france.com/,0,,,,,69002,52 QUAI RAMBAUD,Lyon,20000890,FR,,,France,,,,
12.metadata.participants.0,12,coordinator,999809265,AIRBUS DEFENCE AND SPACE SAS,false,43.6044622,1.4442469,Private for profit organisation,7753272.08,Active,1,,PRC,www.airbusdefenceandspace.com,0,,,,,31402,31 RUE DES COSMONAUTES ZI DU PALAYS,Toulouse Cedex,20000890,FR,,,France,,,,
12.metadata.participants.1,12,participant,999904034,AALBORG UNIVERSITET,false,57.01396,9.984469,HSE,280000,Active,2,,HES,www.aau.dk,0,,,,,9220,FREDRIK BAJERS VEJ 7K,Aalborg,20000875,DK,,,Denmark,,,,
12.metadata.participants.2,12,participant,922504533,ENDUROSAT AD,true,42.6073975,25.4856617,Other,670125,Active,3,,PRC,www.endurosat.com,0,,,,,1404,UL FLORA 1A,Sofia,20000841,BG,,,Bulgaria,,,,
12.metadata.participants.3,12,participant,999645238,VLAAMSE INSTELLING VOOR TECHNOLOGISCH ONDERZOEK N.V.,false,51.2190663,5.0936443,Research organisation,640167.5,Active,4,,REC,www.vito.be,0,,,,,2400,BOERETANG 200,Mol,20000839,BE,,,Belgium,,,,
12.metadata.participants.4,12,participant,940848688,EXATEL SPOLKA AKCYJNA,false,52.33356755,20.979206649261176,Private for profit organisation,799312.5,Active,5,,PRC,www.exatel.pl,0,,,,,04 164,UL PERKUNA 47,WARSZAWA,20000986,PL,,,Poland,,,,
12.metadata.participants.5,12,participant,895000474,FALCONERS OU,true,59.440376,24.36641170882353,Other,251000,Active,6,,PRC,www.falconers.ee,0,,,,,76710,SUVE TEE 10,Tuulna,20000880,EE,,,Estonia,,,,
12.metadata.participants.6,12,participant,903174373,KONGSBERG DEFENCE & AEROSPACE AS,false,59.6569434,9.6446815,Private for profit organisation,2978400,Active,7,,PRC,www.kongsberg.com,0,,,,,3616,KIRKEGARDSVEIEN 45,Kongsberg,20000974,NO,,,Norway,,,,
12.metadata.participants.7,12,participant,999537083,EUROPEAN UNION SATELLITE CENTRE,false,40.4706839,-3.4507365,Other,1068040.59,Active,8,,PUB,www.satcen.europa.eu,0,,,,,28850,AVENIDA DE CADIZ ED 457-BASE AEREA DE TORREJON,Torrejon De Ardoz,20000883,ES,,,Spain,,,,
12.metadata.participants.8,12,participant,929536839,SATLANTIS MICROSATS SA,true,43.3271048,-2.9846079,Other,2950750,Active,9,,PRC,www.satlantis.com,0,,,,,48940,"EDIFICIO SEDE PARQUE CIENTIFICO CAMPUS UPV BARRIO SANTSOENA, 14D - 2A PLANTA",Leioa Bizkaia,20000883,ES,,,Spain,,,,
12.metadata.participants.9,12,participant,990744033,TERRA SPATIUM AE PROIONTON KAI YPIRESION GEOPLIROFORIKIS KAI DIASTIMATOS,true,39.2932397,23.1428984,Other,399750,Active,10,,PRC,www.terraspatium.gr,0,,,,,19400,IOANNOU METAXA 90,KOROPI,20000902,EL,,,Greece,,,,
12.metadata.participants.10,12,participant,932760440,TEKNOLOGIAN TUTKIMUSKESKUS VTT OY,false,60.1864168,24.813150930099283,Research organisation,1263108.37,Active,11,,REC,www.vtt.fi,0,,,,,02150,TEKNIIKANTIE 21,Espoo,20000885,FI,,,Finland,,,,
12.metadata.participants.11,12,participant,958916490,HISDESAT SERVICIOS ESTRATEGICOS SA,false,40.4573216,-3.5618523593554,Private for profit organisation,449911.48,Active,12,,PRC,www.hisdesat.es,0,,,,,28046,PASEO DE LA CASTELLANA 149 PLANTA 4,Madrid,20000883,ES,,,Spain,,,,
12.metadata.participants.12,12,participant,999939051,TELESPAZIO SPA,false,41.9294632,12.5768065,Private for profit organisation,1770602.59,Active,13,,PRC,www.telespazio.com,0,,,,,00156,VIA TIBURTINA 965,Roma,20000922,IT,,,Italy,,,,
12.metadata.participants.13,12,participant,911716484,ELETTRONICA SPA,false,41.81435465,12.226936957567165,Private for profit organisation,1100000,Active,14,,PRC,http://www.elettronicagroup.com/,0,,,,,00131,VIA TIBURTINA VALERIA KM 13.70,Roma,20000922,IT,,,Italy,,,,
12.metadata.participants.14,12,participant,999699558,AIRBUS DEFENCE AND SPACE SA,false,40.3136856,-3.7018334,Private for profit organisation,849956.34,Active,15,,PRC,www.airbus.com,0,,,,,28906,CALLE AVIOCAR 2,Getafe (Madrid),20000883,ES,,,Spain,,,,
12.metadata.participants.15,12,participant,885803516,SIA DATI GROUP,true,56.96198545,24.081015257601546,Other,350000,Active,16,,PRC,www.datigroup.com,0,,,,,LV-1048,BALASTA DAMBIS 80A,Riga,20000946,LV,,,Latvia,,,,
12.metadata.participants.16,12,participant,999987066,STICHTING KONINKLIJK NEDERLANDS LUCHT - EN RUIMTEVAARTCENTRUM,false,52.3451042,4.8438265,Research organisation,679650,Active,17,,REC,www.nlr.nl,0,,,,,1059 CM,ANTHONY FOKKERWEG 2,Amsterdam,20000973,NL,,,Netherlands,,,,
12.metadata.participants.17,12,participant,914787892,MBRYONICS LIMITED,true,53.2744122,-9.0490632,Other,669951.96,Active,18,,PRC,www.mbryonics.com,0,,,,,H91 XK22,"UNIT 13 FIONTARLANN TEO, WESTSIDE ENTERPRISE PARK",Galway,20000915,IE,,,Ireland,,,,
12.metadata.participants.18,12,participant,934220290,SAFRAN DATA SYSTEMS,false,48.6841207,2.2213411,Private for profit organisation,430171.25,Active,19,,PRC,www.safran-electronics-defense.com,0,,,,,91978,5 AVENUE DES ANDES ZONE D'ACTIVITES DE COURTABOEUF,Villejust,20000890,FR,,,France,,,,
12.metadata.participants.19,12,participant,962314400,OHB SWEDEN AB,false,59.4002778,17.9503137,Private for profit organisation,1799700,Active,20,,PRC,,0,,,,,164 29,BOX 1269,Kista,20001001,SE,,,Sweden,,,,
12.metadata.participants.20,12,participant,925001022,UAB KONGSBERG NANOAVIONICS,false,54.7246912,25.3415274,Private for profit organisation,349219.38,Active,21,,PRC,https://nanoavionics.com/,0,,,,,10224,MOKSLININKU G. 2A,Vilnius,20000944,LT,,,Lithuania,,,,
12.metadata.participants.21,12,participant,999988909,NEDERLANDSE ORGANISATIE VOOR TOEGEPAST NATUURWETENSCHAPPELIJK ONDERZOEK TNO,false,52.0822233,4.3257144,Research organisation,519424.38,Active,22,,REC,www.tno.nl,0,,,,,2595 DA,ANNA VAN BUERENPLEIN 1,Den Haag,20000973,NL,,,Netherlands,,,,
12.metadata.participants.22,12,participant,998627417,LEONARDO - SOCIETA PER  AZIONI,false,41.9182673,12.4690749,Private for profit organisation,1038597.64,Active,23,,PRC,www.leonardo.com,0,,,,,00195,PIAZZA MONTE GRAPPA 4,Roma,20000922,IT,,,Italy,,,,
12.metadata.participants.23,12,participant,997607656,ISD LYSEIS OLOKRIROMENON SYSTIMATONANONYMOS ETAIREIA,true,38.9953683,21.9877132,Other,599981.25,Active,24,,PRC,www.isd.gr,0,,,,,151 25,KIFISSIAS AVENUE 32 KTIPIO B ATRINA CENTER,MAROUSSI,20000902,EL,,,Greece,,,,
12.metadata.participants.24,12,participant,985510204,SITAEL SPA,false,41.06121225,17.064323078215118,Private for profit organisation,199887.5,Active,25,,PRC,www.sitael.com,0,,,,,70042,VIA S SABINO 21,Mola Di Bari,20000922,IT,,,Italy,,,,
12.metadata.participants.25,12,participant,999994438,OFFICE NATIONAL D'ETUDES ET DE RECHERCHES AEROSPATIALES,false,48.7095551,2.2233675,Research organisation,650304,Active,26,,REC,www.onera.fr,0,,,,,91120,CHEMIN DE LA HUNIERE,Palaiseau,20000890,FR,,,France,,,,
12.metadata.participants.26,12,participant,999488195,THALES ALENIA SPACE ITALIA SPA,false,41.9359863,12.6088338,Private for profit organisation,3477190,Active,27,,PRC,www.thalesaleniaspace.com,0,,,,,00131,VIA SACCOMURO 24,Roma,20000922,IT,,,Italy,,,,
12.metadata.participants.27,12,participant,885436953,SPACEWAVE OU,true,59.3659125,24.653179273809524,Other,50000,Active,28,,PRC,https://spacewave.eu/,0,,,,,10921,VIKERKAARE 21-2,TALLINN,20000880,EE,,,Estonia,,,,
12.metadata.participants.28,12,participant,999842536,TALLINNA TEHNIKAÜLIKOOL,false,59.3946145,24.6695367,HSE,150000,Active,29,,HES,www.taltech.ee,0,,,,,12616,EHITAJATE TEE 5,Tallinn,20000880,EE,,,Estonia,,,,
12.metadata.participants.29,12,participant,999959130,INDRA SISTEMAS SA,false,40.52917035,-3.6414349825450647,Private for profit organisation,200001,Active,30,,PRC,www.indracompany.com,0,,,,,28108,AVENIDA DE BRUSELAS 35,Alcobendas Madrid,20000883,ES,,,Spain,,,,
12.metadata.participants.30,12,participant,999991819,AIRBUS DEFENCE AND SPACE GMBH,false,48.0459053,11.655792738129307,Private for profit organisation,3305000,Active,31,,PRC,www.airbus-group.com,0,,,,,82024,WILLY-MESSERSCHMITT-STRASSE 1,Taufkirchen,20000873,DE,,,Germany,,,,
12.metadata.participants.31,12,participant,991678046,E-GEOS SPA,false,40.668523,16.601585,Private for profit organisation,449644,Active,32,,PRC,www.e-geos.it,0,,,,,75100,LOCALITA TERLECCHIE,Matera,20000922,IT,,,Italy,,,,
12.metadata.participants.32,12,participant,999908205,THALES ALENIA SPACE FRANCE SAS,false,43.5476997,1.3941094,Private for profit organisation,970000,Active,33,,PRC,www.thalesaleniaspace.com,0,,,,,31100,AVENUE JEAN FRANCOIS CHAMPOLLION 26,Toulouse,20000890,FR,,,France,,,,
12.metadata.participants.33,12,participant,889911369,HENSOLDT CYBER GMBH,false,48.0473293,11.6572639,Private for profit organisation,271531.25,Active,34,,PRC,hensoldt-cyber.com,0,,,,,82024,WILLY-MESSERSCHMITT-STR. 3,TAUFKIRCHEN,20000873,DE,,,Germany,,,,
13.metadata.participants.0,13,coordinator,899680821,NURJANA TECHNOLOGIES SRL,true,39.2680862,9.0496306,Other,3214331.15,Active,1,,PRC,http://www.nurjanatech.com/,0,,,,,09067,VIA MARIO BETTI (CASIC - EST) 27/29,Elmas,20000922,IT,,,Italy,,,,
13.metadata.participants.1,13,participant,893801845,LMO,true,49.5024242,5.9492071,Other,907597.5,Active,2,,PRC,www.lmo.space,0,,,,,4362,AVENUE DES HAUTS-FOURNEAUX 9,Esch-Sur-Alzette,20000945,LU,,,Luxembourg,,,,
13.metadata.participants.2,13,participant,880362204,LAMBDA-X HIGH TECH,true,50.58916295,4.331909175863107,Other,279611.03,Active,3,,PRC,www.hightech.lambda-x.com,0,,,,,1400,AVENUE ROBERT SCHUMAN 102,NIVELLES,20000839,BE,,,Belgium,,,,
13.metadata.participants.3,13,participant,938743400,SKYLABS VESOLJSKE TEHNOLOGIJE DOO,true,46.5305539,15.6670511,Other,518770.9,Active,4,,PRC,www.skylabs.si,0,,,,,2000,ZAGREBSKA CESTA 104,Maribor,20001004,SI,,,Slovenia,,,,
13.metadata.participants.4,13,participant,892516013,VYOMA GMBH,true,48.1666022,11.5777462,Other,1073929.07,Active,5,,PRC,https://vyoma.space,0,,,,,80803,KARL THEODOR STRASSE 55,MUNCHEN,20000873,DE,,,Germany,,,,
13.metadata.participants.5,13,associatedPartner,997899044,TELESPAZIO FRANCE SAS,false,43.5476997,1.3941094,Private for profit organisation,0,Active,6,,PRC,www.telespazio.com/fr,0,,,,,31023,AVENUE JEAN FRANCOIS CHAMPOLLION 26,Toulouse,20000890,FR,,,France,,,,
14.metadata.participants.0,14,coordinator,897466020,ALDORIA,true,43.6054545,1.4440901,Other,1123392.61,Active,1,,PRC,www.aldoria.com,0,,,,,31000,8 RUE DE REMUSAT,Toulouse,20000890,FR,,,France,,,,
14.metadata.participants.1,14,participant,918136526,SYBILLA TECHNOLOGIES SPOLKA Z OGRANICZONA ODPOWIEDZIALNOSCIA,true,53.0956342,18.081248050840248,Other,464979.66,Active,2,,PRC,www.sybillatechnologies.com,0,,,,,85-023,UL. TORUNSKA 59,Bydgoszcz,20000986,PL,,,Poland,,,,
14.metadata.participants.2,14,participant,899680821,NURJANA TECHNOLOGIES SRL,true,39.2680862,9.0496306,Other,666337.79,Active,3,,PRC,http://www.nurjanatech.com/,0,,,,,09067,VIA MARIO BETTI (CASIC - EST) 27/29,Elmas,20000922,IT,,,Italy,,,,
14.metadata.participants.3,14,participant,893801845,LMO,true,49.5024242,5.9492071,Other,895367.11,Active,4,,PRC,www.lmo.space,0,,,,,4362,AVENUE DES HAUTS-FOURNEAUX 9,Esch-Sur-Alzette,20000945,LU,,,Luxembourg,,,,
14.metadata.participants.4,14,participant,910551514,AIKO SRL,true,45.0607442,7.6924312,Other,500738.38,Active,5,,PRC,www.aikospace.com,0,,,,,10123,VIA DEI MILLE 22,Torino,20000922,IT,,,Italy,,,,
14.metadata.participants.5,14,associatedPartner,999878620,UNIVERSITE DU LUXEMBOURG,false,49.504605,5.9482904,HSE,0,Active,6,,HES,www.uni.lu,0,,,,,4365,2 PLACE DE L'UNIVERSITE,ESCH-SUR-ALZETTE,20000945,LU,,,Luxembourg,,,,
15.metadata.participants.0,15,coordinator,934617214,ON-AIR CONSULTING & SOLUTIONS SRL,true,41.81435465,12.226936957567165,Other,758018.62,Active,1,,PRC,www.onaircs.com,0,,,,,00198,VIALE REGINA MARGHERITA 278,Roma,20000922,IT,,,Italy,,,,
15.metadata.participants.1,15,participant,923782605,IMT SRL,true,41.81435465,12.226936957567165,Other,433217.59,Active,2,,PRC,www.imtsrl.it,0,,,,,00159,VIA CIPRIANO FACCHINETTI 67,Roma,20000922,IT,,,Italy,,,,
15.metadata.participants.2,15,participant,888835542,SPACE TECHNOLOGIES FOR INNOVATION S.R.L.,false,41.9366571,12.6351849,Private for profit organisation,93600.8,Active,3,,PRC,www.st4in.com,0,,,,,00012,VIA ROMA 231,Guidonia Montecelio,20000922,IT,,,Italy,,,,
15.metadata.participants.3,15,participant,993050014,OPTEC SPA,true,45.4429138,8.6300509,Other,401632.65,Active,4,,PRC,www.optec.eu,0,,,,,28100,VIA SCAVINI 2 A,Novara,20000922,IT,,,Italy,,,,
15.metadata.participants.4,15,participant,998581633,BRADFORD ENGINEERING BV,true,51.5107518,4.3707088,Other,240848.32,Active,5,,PRC,www.bradford-space.com,0,,,,,4726 TG,DE WIJPER  26,Heerle,20000973,NL,,,Netherlands,,,,
15.metadata.participants.5,15,participant,997636853,INTEGRASYS SA,true,40.5297255,-3.9266948,Other,289308.31,Active,7,,PRC,www.integrasys-sa.com,0,,,,,28232,"CALLE JOSE ECHEGARAY, NUM. 8 PORTAL 3, PLANTA 1, P LIGONO EMPRESARIAL LAS ROZAS - MATAS PIN AR MONTE ROZAS",Rozas De Madrid,20000883,ES,,,Spain,,,,
15.metadata.participants.6,15,participant,958732481,TEKEVER SPACE - SISTEMAS ESPACIAIS LDA,true,39.3683851,-9.0493435,Other,283320.75,Active,8,,PRC,space.tekever.com,0,,,,,2500-750,"RUA DAS MINAS 2, ZONA INDUSTRIAL ESTRADA DA FOZ DO ARELHO",Caldas Da Rainha,20000990,PT,,,Portugal,,,,
15.metadata.participants.7,15,participant,999795394,TTI NORTE SL,true,43.4458084,-3.8659624,Other,416188.36,Active,9,,PRC,www.ttinorte.es,0,,,,,39011,CALLE ALBERT EINSTEIN 14,Santander,20000883,ES,,,Spain,,,,
15.metadata.participants.8,15,participant,907255745,CELESTIA SATELLITE TEST ANDSIMULATION  B V,false,52.5001698,5.7480821,Private for profit organisation,193185.44,Active,10,,PRC,www.celestia-sts.com,0,,,,,2201 DK,HUYGENSSTRAAT 44,Noordwijk,20000973,NL,,,Netherlands,,,,
15.metadata.participants.9,15,participant,927049953,HYPERION TECHNOLOGIES BV,true,51.9886754,4.3630578,Other,715638.23,Active,11,,PRC,www.aac-clydespace.com,0,,,,,2623 AX,VLINDERWEG 2,DELFT,20000973,NL,,,Netherlands,,,,
15.metadata.participants.10,15,participant,948420120,ELITAL - ELETTRONICA ITALIANA-SOCIETA' A RESPONSABILITA' LIMITATA,true,42.3492149,13.396991328473893,Other,175040.93,Active,12,,PRC,www.elital.com,0,,,,,67100,ZONA INDUSTRIALE DI PILE S.N.C.,L'Aquila,20000922,IT,,,Italy,,,,
16.metadata.participants.0,16,coordinator,999809265,AIRBUS DEFENCE AND SPACE SAS,false,43.6044622,1.4442469,Private for profit organisation,1446462,Active,1,,PRC,www.airbusdefenceandspace.com,0,,,,,31402,31 RUE DES COSMONAUTES ZI DU PALAYS,Toulouse Cedex,20000890,FR,,,France,,,,
16.metadata.participants.1,16,participant,999904034,AALBORG UNIVERSITET,false,57.01396,9.984469,HSE,297678.75,Active,2,,HES,www.aau.dk,0,,,,,9220,FREDRIK BAJERS VEJ 7K,Aalborg,20000875,DK,,,Denmark,,,,
16.metadata.participants.2,16,participant,999991819,AIRBUS DEFENCE AND SPACE GMBH,false,48.0459053,11.655792738129307,Private for profit organisation,1261497.39,Active,3,,PRC,www.airbus-group.com,0,,,,,82024,WILLY-MESSERSCHMITT-STRASSE 1,Taufkirchen,20000873,DE,,,Germany,,,,
16.metadata.participants.3,16,participant,884772988,ARBIT CYBER DEFENCE SYSTEMS APS,true,55.664084,12.460463,Other,1256125,Active,4,,PRC,https://arbitcds.com,0,,,,,2650,IMMERKAER 54,HVIDOVRE,20000875,DK,,,Denmark,,,,
16.metadata.participants.4,16,participant,998325941,DEEP BLUE SRL,true,41.9001699,12.5005135,Other,881250,Active,5,,PRC,http://www.dblue.it,0,,,,,00185,VIA DANIELE MANIN 53,Roma,20000922,IT,,,Italy,,,,
16.metadata.participants.5,16,participant,999939730,"THALES EDISOFT PORTUGAL, S.A.",false,38.6950425,-9.2917507,Private for profit organisation,259661.25,Active,6,,PRC,www.edisoft.pt,0,,,,,2770-192,"Rua da Quinta da Fonte, Lote 9, Edifício Q45 - Gil Eanes",Paco De Arcos,20000990,PT,,,Portugal,,,,
16.metadata.participants.6,16,participant,911149131,UAB NOVIAN PRO,false,54.69263,25.2643356,Private for profit organisation,774973,Active,7,,PRC,https://novian.io/novian-pro/,0,,,,,01109,GYNEJU G 14,VILNIUS,20000944,LT,,,Lithuania,,,,
16.metadata.participants.7,16,participant,996375756,ECOLE NATIONALE DE L AVIATION CIVILE,false,43.5653196,1.4790431,HSE,446250,Active,8,,HES,www.enac.fr,0,,,,,31400,AVENUE EDOUARD BELIN 7,Toulouse,20000890,FR,,,France,,,,
16.metadata.participants.8,16,participant,894728583,ENERSEC TECHNOLOGY SRL,true,44.4361414,26.1027202,Other,425788.75,Active,9,,PRC,www.enersec.net,0,,,,,010131,INTR ARMASULUI 5 ET 3 AP 5 SECT 1,BUCURESTI,20000994,RO,,,Romania,,,,
16.metadata.participants.9,16,participant,957954444,ERA AS,false,49.9066217,15.8126778,Private for profit organisation,136711,Active,10,,PRC,www.era.aero,0,,,,,530 03,PRUMYSLOVA 462,Pardubice,20000872,CZ,,,Czechia,,,,
16.metadata.participants.10,16,participant,919527700,SXOLI IKARON,false,38.9953683,21.9877132,HSE,461033,Active,11,,HES,https://hafa.haf.gr/,0,,,,,136 71,DEKELEIA AIR FORCE BASE,ATTICA,20000902,EL,,,Greece,,,,
16.metadata.participants.11,16,participant,999959130,INDRA SISTEMAS SA,false,40.52917035,-3.6414349825450647,Private for profit organisation,2482922.82,Active,12,,PRC,www.indracompany.com,0,,,,,28108,AVENIDA DE BRUSELAS 35,Alcobendas Madrid,20000883,ES,,,Spain,,,,
16.metadata.participants.12,16,participant,998627417,LEONARDO - SOCIETA PER  AZIONI,false,41.9182673,12.4690749,Private for profit organisation,2312928.1,Active,13,,PRC,www.leonardo.com,0,,,,,00195,PIAZZA MONTE GRAPPA 4,Roma,20000922,IT,,,Italy,,,,
16.metadata.participants.13,16,participant,883848190,LUXTRUST SA,true,49.6419702,6.007312535979592,Other,1062500,Active,14,,PRC,https://www.luxtrust.com/en,0,,,,,8308,13-15 PARC D'ACTIVITES,Capellen,20000945,LU,,,Luxembourg,,,,
16.metadata.participants.14,16,participant,897926576,SPIKA TECH SL,true,40.38927285,-3.6564371569759495,Other,1090898.75,Active,15,,PRC,https://www.spikatech.com/,0,,,,,28018,CALLE ALCALA GUADAIRA 6 6A,Madrid,20000883,ES,,,Spain,,,,
16.metadata.participants.15,16,participant,996531635,TELEPLAN GLOBE AS,true,59.9081033,10.6285239,Other,928050,Active,16,,PRC,http://www.teleplanglobe.com/,0,,,,,1366,FORNEBUVEIEN 31,Lysaker,20000974,NO,,,Norway,,,,
16.metadata.participants.16,16,participant,983564481,THALES HELLAS MONOPROSOPI ANONYMI ETAIREIA PARAGOGIS EMPORIAS KAI YPIRESION ILEKTRONIKOU EXOPLISMOU,false,38.9953683,21.9877132,Private for profit organisation,461033,Active,17,,PRC,www.thalesgroup.com,0,,,,,194 41,KONSTANTINOUPOLEOS 48,Koropi,20000902,EL,,,Greece,,,,
16.metadata.participants.17,16,participant,999961555,THALES LAS FRANCE SAS,false,48.7906419,1.9741698,Private for profit organisation,1374281,Active,18,,PRC,www.thalesgroup.com,0,,,,,78990,AVENUE GAY LUSSAC 2,Elancourt,20000890,FR,,,France,,,,
16.metadata.participants.18,16,participant,932760440,TEKNOLOGIAN TUTKIMUSKESKUS VTT OY,false,60.1864168,24.813150930099283,Research organisation,751993,Active,19,,REC,www.vtt.fi,0,,,,,02150,TEKNIIKANTIE 21,Espoo,20000885,FI,,,Finland,,,,
16.metadata.participants.19,16,participant,953620387,42 SOLUTIONS BV,true,51.4497136,5.4971925,Other,709628.48,Active,20,,PRC,www.42solutions.nl,0,,,,,5612 AJ,DE ZAALE 11,Eindhoven,20000973,NL,,,Netherlands,,,,
17.metadata.participants.0,17,coordinator,989736009,EURENCO FRANCE SAS,false,43.9998766,4.8730899,Private for profit organisation,22034734,Active,1,,PRC,www.eurenco.com,0,,,,,84700,123 ALLEE DE BRANTES,SORGUES,20000890,FR,,,France,,,,
18.metadata.participants.0,18,coordinator,999961555,THALES LAS FRANCE SAS,false,48.7906419,1.9741698,Private for profit organisation,2394165.37,Active,1,,PRC,www.thalesgroup.com,0,,,,,78990,AVENUE GAY LUSSAC 2,Elancourt,20000890,FR,,,France,,,,
18.metadata.participants.1,18,participant,999954668,SAFRAN ELECTRONICS & DEFENSE,false,48.8379593,2.2702424,Private for profit organisation,2030384,Active,2,,PRC,www.safran-group.com,0,,,,,75015,2 BOULEVARD DU GENERAL MARTIAL VALIN,Paris,20000890,FR,,,France,,,,
18.metadata.participants.2,18,participant,999994438,OFFICE NATIONAL D'ETUDES ET DE RECHERCHES AEROSPATIALES,false,48.7095551,2.2233675,Research organisation,1562924.21,Active,3,,REC,www.onera.fr,0,,,,,91120,CHEMIN DE LA HUNIERE,Palaiseau,20000890,FR,,,France,,,,
18.metadata.participants.3,18,participant,999905004,GMV AEROSPACE AND DEFENCE SA,false,40.5943864,-3.7084131,Private for profit organisation,1499999.82,Active,4,,PRC,www.gmv.com,0,,,,,28760,CALLE ISAAC NEWTON PARQUE TECNOLOGICO DE MADRID,Tres Cantos,20000883,ES,,,Spain,,,,
18.metadata.participants.4,18,participant,998627417,LEONARDO - SOCIETA PER  AZIONI,false,41.9182673,12.4690749,Private for profit organisation,1577994.97,Active,5,,PRC,www.leonardo.com,0,,,,,00195,PIAZZA MONTE GRAPPA 4,Roma,20000922,IT,,,Italy,,,,
18.metadata.participants.5,18,participant,999984059,FRAUNHOFER GESELLSCHAFT ZUR FORDERUNG DER ANGEWANDTEN FORSCHUNG EV,false,48.1322664,11.5296222,Other,1494789.81,Active,6,,REC,www.fraunhofer.de,0,,,,,80686,HANSASTRASSE 27C,Munchen,20000873,DE,,,Germany,,,,
18.metadata.participants.6,18,participant,893663911,FLYSIGHT SRL,true,43.5507411,10.3091456,Other,1266250,Active,7,,PRC,https://www.flysight.it/,0,,,,,57121,VIA AURELIO LAMPREDI 45,Livorno,20000922,IT,,,Italy,,,,
18.metadata.participants.7,18,participant,999988909,NEDERLANDSE ORGANISATIE VOOR TOEGEPAST NATUURWETENSCHAPPELIJK ONDERZOEK TNO,false,52.0822233,4.3257144,Research organisation,1454063.82,Active,8,,REC,www.tno.nl,0,,,,,2595 DA,ANNA VAN BUERENPLEIN 1,Den Haag,20000973,NL,,,Netherlands,,,,
18.metadata.participants.8,18,participant,934320200,LUXEMBOURG INSTITUTE OF SCIENCE AND TECHNOLOGY,false,49.5018962,5.9484115,Research organisation,1499941.47,Active,9,,REC,www.list.lu,0,,,,,4362,5 AVENUE DES HAUTS FOURNEAUX,Esch Sur Alzette,20000945,LU,,,Luxembourg,,,,
18.metadata.participants.9,18,participant,999951758,HENSOLDT OPTRONICS GMBH,false,48.7832568,10.100716,Private for profit organisation,879375,Active,10,,PRC,www.hensoldt.net,0,,,,,73447,CARL ZEISS STRASSE 22,Oberkochen,20000873,DE,,,Germany,,,,
18.metadata.participants.10,18,participant,997511626,HENSOLDT ANALYTICS GMBH,false,48.2161891,16.3483683,Private for profit organisation,411529.15,Active,11,,PRC,www.hensoldt-analytics.com,0,,,,,1090,MARIANNENGASSE 14,Wien,20000832,AT,,,Austria,,,,
18.metadata.participants.11,18,participant,903174373,KONGSBERG DEFENCE & AEROSPACE AS,false,59.6569434,9.6446815,Private for profit organisation,1249600,Active,12,,PRC,www.kongsberg.com,0,,,,,3616,KIRKEGARDSVEIEN 45,Kongsberg,20000974,NO,,,Norway,,,,
18.metadata.participants.12,18,participant,999966696,RHEINMETALL ELECTRONICS GMBH,false,53.0553106,8.896582225643018,Private for profit organisation,1318473.8,Active,13,,PRC,www.rheinmetall.com,0,,,,,28309,BRUEGGEWEG 54,Bremen,20000873,DE,,,Germany,,,,
18.metadata.participants.13,18,participant,893359719,MARDUK TECHNOLOGIES OU,true,59.3978817,24.6577591,Other,1810409.64,Active,14,,PRC,www.marduk.ee,0,,,,,12618,AKADEEMIA TEE 21/6,Tallinn,20000880,EE,,,Estonia,,,,
18.metadata.participants.14,18,participant,999584128,AIT AUSTRIAN INSTITUTE OF TECHNOLOGY GMBH,false,48.269137,16.4266762,Research organisation,1200680,Active,15,,REC,http://www.ait.ac.at/,0,,,,,1210,GIEFINGGASSE 4,Wien,20000832,AT,,,Austria,,,,
18.metadata.participants.15,18,participant,999852915,UNIVERSITAT ZU KOLN,false,50.92753465,6.928019593661854,HSE,346500,Active,16,,HES,www.uni-koeln.de,0,,,,,50931,ALBERTUS MAGNUS PLATZ,Koln,20000873,DE,,,Germany,,,,
18.metadata.participants.16,18,participant,999754363,CYBERNETICA AS,true,59.39617695,24.659245574049006,Other,489946.82,Active,17,,PRC,https://www.cyber.ee/,0,,,,,12618,MAEALUSE 2,Tallinn,20000880,EE,,,Estonia,,,,
18.metadata.participants.17,18,participant,916965542,STAM SRL,true,44.4112958,8.8841964,Other,345114.11,Active,18,,PRC,www.stamtech.com,0,,,,,16129,VIA PARETO 8 AR,Genova Ge,20000922,IT,,,Italy,,,,
18.metadata.participants.18,18,participant,895000474,FALCONERS OU,true,59.440376,24.36641170882353,Other,153313.47,Active,19,,PRC,www.falconers.ee,0,,,,,76710,SUVE TEE 10,Tuulna,20000880,EE,,,Estonia,,,,
18.metadata.participants.19,18,participant,999840887,UNIVERSITA DEGLI STUDI DI MODENA E REGGIO EMILIA,false,44.6449897,10.9277835,HSE,150223.87,Active,20,,HES,www.unimore.it,0,,,,,41121,VIA UNIVERSITA 4,Modena,20000922,IT,,,Italy,,,,
18.metadata.participants.20,18,thirdParty,999971934,THALES SIX GTS FRANCE SAS,false,48.9447771,2.3059242,Private for profit organisation,200870,Active,1,,PRC,www.thalesgroup.com,0,,,,,92230,AVENUE DES LOUVRESSES 4,Gennevilliers,20000890,FR,,,France,,,,
19.metadata.participants.0,19,coordinator,996058081,BULL SAS,false,48.8214478,1.9871825,Private for profit organisation,1293168.61,Active,1,,PRC,www.bull.com,0,,,,,78340,RUE JEAN JAURES 68,Les Clayes Sous Bois,20000890,FR,,,France,,,,
19.metadata.participants.1,19,participant,999625450,FONDAZIONE BRUNO KESSLER,false,46.0636533,11.1235375,Research organisation,817636.62,Active,2,,REC,www.fbk.eu,0,,,,,38122,VIA SANTA CROCE 77,Trento,20000922,IT,,,Italy,,,,
19.metadata.participants.2,19,participant,884761057,TIEMPO SAS,true,0.0,0.0,Other,1383285.03,Active,3,,PRC,www.tiempo-secure.com,0,,,,,38330,RUE BLAISE PASCAL 110,Montbonnot Saint Martin,20000890,FR,,,France,,,,
20.metadata.participants.0,20,coordinator,999754363,CYBERNETICA AS,true,59.39617695,24.659245574049006,Other,3499218.75,Active,1,,PRC,https://www.cyber.ee/,0,,,,,12618,MAEALUSE 2,Tallinn,20000880,EE,,,Estonia,,,,
20.metadata.participants.1,20,participant,999702371,NETCOMPANY-INTRASOFT SA,false,49.604838900000004,6.086305835563419,Private for profit organisation,1324125,Active,2,,PRC,www.netcompany-intrasoft.com,0,,,,,1253,RUE NICOLAS BOVE 2B,Luxembourg,20000945,LU,,,Luxembourg,,,,
20.metadata.participants.2,20,participant,999756982,JOTNE CONNECT AS,true,59.914291,10.79997,Other,1462625,Active,3,,PRC,https://jotneconnect.com,0,,,,,0663,GRENSEVEIEN 107,Oslo,20000974,NO,,,Norway,,,,
20.metadata.participants.3,20,participant,999967084,INDUSTRIEANLAGEN BETRIEBSGESELLSCHAFT MBH,false,48.0643823,11.6675042,Private for profit organisation,255187.5,Active,4,,PRC,www.iabg.de,0,,,,,85521,EINSTEINSTRASSE 20,Ottobrunn,20000873,DE,,,Germany,,,,
20.metadata.participants.4,20,participant,968727943,BALTIJOS PAZANGIU TECHNOLOGIJU INSTITUTAS,true,54.6870458,25.2829111,Research organisation,413875,Active,5,,REC,http://www.bpti.eu/,0,,,,,LT-01403,PILIES STR 16-8,Vilnius,20000944,LT,,,Lithuania,,,,
20.metadata.participants.5,20,participant,999969509,ITTI SP ZOO,true,52.45513425,16.95551490966998,Other,571525,Active,6,,PRC,www.itti.com.pl,0,,,,,61-612,RUBIEZ 46,Poznan,20000986,PL,,,Poland,,,,
20.metadata.participants.6,20,participant,991075967,MINISTERUL APARARII NATIONALE,false,44.961159300000006,25.896799860166027,Research organisation,283250,Active,7,,REC,www.acttm.ro,0,,,,,050561,"Strada Izvor, sector 5  3-5",Bucharest,20000994,RO,,,Romania,,,,
20.metadata.participants.7,20,participant,888494296,SIA CYBER CIRCLE,true,57.53836295,25.417388708502536,Other,584812.5,Active,8,,PRC,www.cybercircle.eu,0,,,,,LV-4201,RIGAS IELA 20-22,Valmiera,20000946,LV,,,Latvia,,,,
20.metadata.participants.8,20,participant,972162131,OLTIS GROUP AS,true,49.5969378,17.2743594,Other,389200,Active,9,,PRC,www.oltisgroup.com,0,,,,,77900,DR MILADY HORAKOVE 1200/27A,Olomouc,20000872,CZ,,,Czechia,,,,
20.metadata.participants.9,20,participant,963316410,INTERCONSULT BULGARIA OOD,false,42.6073975,25.4856617,Private for profit organisation,161237.5,Active,10,,PRC,www.icb.bg,0,,,,,1309,ULICA INDZHE VOIVODA 7,SOFIA,20000841,BG,,,Bulgaria,,,,
20.metadata.participants.10,20,participant,958304323,INSTITUT PO OTBRANA,false,42.6978634,23.3221789,Research organisation,157225,Active,11,,REC,http://di.mod.bg,0,,,,,1574,prof. Tsvetan Lazarov blvd.  2,Sofia,20000841,BG,,,Bulgaria,,,,
21.metadata.participants.0,21,coordinator,954900496,LA PALMA RESEARCH CENTRE SL,true,28.8588026,-13.8059175,Other,878761.11,Active,1,,PRC,www.lapalmacentre.eu,0,,,,,38787,CALLE EL CASTILLO EL FRONTON 37,Santa Cruz De La Palma,20000883,ES,,,Spain,,,,
21.metadata.participants.1,21,participant,999974844,UNIVERSIDAD POLITECNICA DE MADRID,false,40.4167047,-3.7035825,HSE,779815.82,Active,2,,HES,www.upm.es,0,,,,,28040,CALLE RAMIRO DE MAEZTU 7 EDIFICIO RECTORADO,Madrid,20000883,ES,,,Spain,,,,
21.metadata.participants.2,21,participant,999513706,"INESC TEC - INSTITUTO DE ENGENHARIADE SISTEMAS E COMPUTADORES, TECNOLOGIA E CIENCIA",false,41.1804038,-8.595502,Research organisation,748880.83,Active,3,,REC,www.inesctec.pt,0,,,,,4200 465,RUA DR ROBERTO FRIAS CAMPUS DA FEUP,Porto,20000990,PT,,,Portugal,,,,
21.metadata.participants.3,21,participant,890699882,TRISOLARIS ADVANCED TECHNOLOGIES LDA,true,37.7519693,-25.5779775,Other,954949.87,Active,4,,PRC,www.trisolaris.com,0,,,,,9560-421,RUA DA TECNOLOGIA K EPSILON N.2,Lagoa,20000990,PT,,,Portugal,,,,
21.metadata.participants.4,21,participant,988442029,ZANASI ALESSANDRO SRL,true,44.6408367,10.92166,Other,300238.52,Active,5,,PRC,,0,,,,,41100,VIA G B AMICI 29,MODENA,20000922,IT,,,Italy,,,,
21.metadata.participants.5,21,participant,888553854,PORVALOR - ATIVOS DE ENGENHARIA LDA,true,37.749679650000004,-25.580320626552343,Other,264696.49,Active,6,,PRC,https://porvalor.pt/,0,,,,,9560-421,RUA DA TECNOLOGIA K - EPSILON N2,Lagoa,20000990,PT,,,Portugal,,,,
22.metadata.participants.0,22,coordinator,971894411,NAVANTIA S.A.,false,40.4384848,-3.6827856,Private for profit organisation,3537079.67,Active,1,,PRC,WWW.NAVANTIA.ES,0,,,,,28006,CALLE VELAZQUEZ 132,Madrid,20000883,ES,,,Spain,,,,
22.metadata.participants.1,22,participant,935265077,SOCIEDAD ANONIMA DE ELECTRONICA SUBMARINA SME,false,37.6026896,-1.0086658,Private for profit organisation,973800,Active,2,,PRC,www.electronica-submarina.com,0,,,,,30205,CTRA DE LA ALGAMECA S/N,Cartagena,20000883,ES,,,Spain,,,,
22.metadata.participants.2,22,participant,899285837,SENER AEROESPACIAL SOCIEDAD ANONIMA,false,43.3270799,-3.0171911467617747,Private for profit organisation,2454170.32,Active,3,,PRC,www.aeroespacial.sener,0,,,,,48930,AVDA ZUGAZARTE 56,Las Arenas,20000883,ES,,,Spain,,,,
22.metadata.participants.3,22,participant,999905004,GMV AEROSPACE AND DEFENCE SA,false,40.5943864,-3.7084131,Private for profit organisation,1470000.01,Active,4,,PRC,www.gmv.com,0,,,,,28760,CALLE ISAAC NEWTON PARQUE TECNOLOGICO DE MADRID,Tres Cantos,20000883,ES,,,Spain,,,,
22.metadata.participants.4,22,participant,998381522,NAVAL GROUP,false,48.8514324,2.2904274,Private for profit organisation,680000,Active,5,,PRC,www.naval-group.com,0,,,,,75015,RUE DU DOCTEUR FINLAY 40-42,Paris,20000890,FR,,,France,,,,
22.metadata.participants.5,22,participant,911383483,FINCANTIERI NEXTECH SPA,false,45.4584454,9.1859248,Private for profit organisation,1705250,Active,6,,PRC,www.fincantieri.com/it/gruppo/controllate-collegate/fincantieri-nextech/,0,,,,,20123,VIA CARLO OTTAVIO CORNAGGIA 10,Milano,20000922,IT,,,Italy,,,,
22.metadata.participants.6,22,participant,903174373,KONGSBERG DEFENCE & AEROSPACE AS,false,59.6569434,9.6446815,Private for profit organisation,1190037.5,Active,7,,PRC,www.kongsberg.com,0,,,,,3616,KIRKEGARDSVEIEN 45,Kongsberg,20000974,NO,,,Norway,,,,
22.metadata.participants.7,22,participant,946189605,AKADEMIA MARYNARKI WOJENNEJ,false,54.5429174,18.547185,Other,1900000,Active,8,,REC,www.amw.gdynia.pl,0,,,,,81 103,SMIDOWICZA 69,Gdynia,20000986,PL,,,Poland,,,,
22.metadata.participants.8,22,participant,999549984,SIEC BADAWCZA LUKASIEWICZ - PRZEMYSLOWY INSTYTUT AUTOMATYKI I POMIAROW PIAP,false,52.1942126,20.921220485125634,Research organisation,1090000,Active,9,,REC,https://piap.lukasiewicz.gov.pl/,0,,,,,02 486,ALEJE JEROZOLIMSKIE 202,Warsaw,20000986,PL,,,Poland,,,,
22.metadata.participants.9,22,participant,893356906,NAVAL GROUP BELGIUM,false,50.84579615,4.3576019712109435,Private for profit organisation,702000,Active,10,,PRC,,0,,,,,1000,38-40 SQUARE DE MEEUS,BRUSSELS,20000839,BE,,,Belgium,,,,
22.metadata.participants.10,22,participant,986464587,ATLAS ELEKTRONIK GMBH,false,53.0587523,8.8996576,Private for profit organisation,2130625,Active,11,,PRC,www.atlas-elektronik.com,0,,,,,28309,SEBALDSBRUCKER HEERSTRASSE 235,Bremen,20000873,DE,,,Germany,,,,
22.metadata.participants.11,22,participant,999984059,FRAUNHOFER GESELLSCHAFT ZUR FORDERUNG DER ANGEWANDTEN FORSCHUNG EV,false,48.1322664,11.5296222,Other,1249747.2,Active,12,,REC,www.fraunhofer.de,0,,,,,80686,HANSASTRASSE 27C,Munchen,20000873,DE,,,Germany,,,,
22.metadata.participants.12,22,participant,885176023,"Wehrtechnische Dienststelle für Schiffe und Marinewaffen, Maritime Technologie und Forschung",false,54.4716456,9.8374947,Research organisation,1126420.05,Active,13,,REC,https://www.bundeswehr.de/de/organisation/ausruestung-baainbw/organisation/wtd-71,0,,,,,24340,BERLINER STR 115,Eckernforde,20000873,DE,,,Germany,,,,
22.metadata.participants.13,22,participant,941572502,DEVELOGIC GMBH,false,53.5458772,10.0457867,Private for profit organisation,1113188.75,Active,14,,PRC,www.develogic.de,0,,,,,20537,HAMMER DEICH 70,Hamburg,20000873,DE,,,Germany,,,,
22.metadata.participants.14,22,participant,998683871,SAAB KOCKUMS AKTIEBOLAG,false,55.6070457,13.000083,Private for profit organisation,1589999,Active,15,,PRC,www.saab.com,0,,,,,205 55,.,Malmo,20001001,SE,,,Sweden,,,,
22.metadata.participants.15,22,participant,950054279,SHIPYARDS AND MARITIME EQUIPMENT ASSOCIATION OF EUROPE,false,50.8441327,4.374518652283886,Other,308750,Active,16,,OTH,www.seaeurope.eu,0,,,,,1000,RUE DE LA LOI 67,Bruxelles / Brussel,20000839,BE,,,Belgium,,,,
22.metadata.participants.16,22,participant,888362279,SOTIRIA TECHNOLOGY MONOPROSOPI IDIOTIKI KEFALAIOUCHIKI ETAIREIA,true,38.9953683,21.9877132,Other,650000,Active,17,,PRC,www.sotiria.tech,0,,,,,104 31,9 OMONIA SQUARE,ATHENS,20000902,EL,,,Greece,,,,
22.metadata.participants.17,22,participant,984440488,PRISMA ELECTRONICS SA,true,38.9953683,21.9877132,Other,420000,Active,18,,PRC,https://www.prismaelectronics.eu/index.php/en/,0,,,,,681 00,DIMOKRATIAS AVENUE 87,ALEXANDROUPOLIS,20000902,EL,,,Greece,,,,
22.metadata.participants.18,22,participant,907711936,CAFA TECH OU,true,59.4372155,24.7453688,Other,468877.5,Active,19,,PRC,https://cafatech.com,0,,,,,10612,MADARA 29/1,Tallinn,20000880,EE,,,Estonia,,,,
22.metadata.participants.19,22,participant,892246450,"ADYTA, LDA",true,41.1531472,-8.6367336,Other,240055,Active,20,,PRC,www.adyta.pt,0,,,,,4169-007,"FC6 CIENCIA DE COMPUTADORES, RUA DO",Porto,20000990,PT,,,Portugal,,,,
23.metadata.participants.0,23,coordinator,880085172,STV GROUP AS,false,50.0956949,14.4164721,Private for profit organisation,4986345.1,Active,1,,PRC,www.stvgroup.cz,0,,,,,110 00,DLOUHA 730/35,PRAHA,20000872,CZ,,,Czechia,,,,
24.metadata.participants.0,24,coordinator,999751938,THALES,false,48.8208381,2.2332588,Private for profit organisation,732690.71,Active,1,,PRC,www.thalesgroup.com,0,,,,,92190,4 RUE DE LA VERRERIE,MEUDON,20000890,FR,,,France,,,,
24.metadata.participants.1,24,participant,999995893,IDRYMA TECHNOLOGIAS KAI EREVNAS,false,38.9953683,21.9877132,Research organisation,650319.69,Active,2,,REC,www.forth.gr,0,,,,,70013,N PLASTIRA STR 100,Irakleio,20000902,EL,,,Greece,,,,
24.metadata.participants.2,24,participant,999718085,BERLINER NANOTEST UND DESIGN GMBH,true,52.429421,13.5384541,Other,199498.85,Active,3,,PRC,www.nanotest.eu,0,,,,,12489,VOLMERSTRASSE 9 B,Berlin,20000873,DE,,,Germany,,,,
24.metadata.participants.3,24,participant,891308072,CIRCUITS INTEGRATED HELLAS IKE,true,39.454782,-90.354603,Other,199868.75,Active,4,,PRC,https://www.linkedin.com/company/circuits-integrated/,0,,,,,14562,LEOF KIFISIAS 226,KIFISIA,20000902,EL,,,Greece,,,,
24.metadata.participants.4,24,participant,999985029,UPPSALA UNIVERSITET,false,59.8690108,17.6310107,HSE,250142.46,Active,5,,HES,www.uu.se,0,,,,,751 05,VON KRAEMERS ALLE 4,Uppsala,20001001,SE,,,Sweden,,,,
24.metadata.participants.5,24,participant,999643007,ETHNIKO KAI KAPODISTRIAKO PANEPISTIMIO ATHINON,false,38.9953683,21.9877132,HSE,150697.35,Active,6,,HES,www.elke.uoa.gr,0,,,,,10561,6 CHRISTOU LADA STR,Athina,20000902,EL,,,Greece,,,,
24.metadata.participants.6,24,participant,999617690,INSTITUTUL NATIONAL DE CERCETAREDEZVOLTARE PENTRU MICROTEHNOLOGIE,false,44.4872509,26.19714014504534,Research organisation,175000,Active,7,,REC,www.imt.ro,0,,,,,077190,EROU IANCU NICOLAE STREET 126 A,VOLUNTARI,20000994,RO,,,Romania,,,,
24.metadata.participants.7,24,participant,999971934,THALES SIX GTS FRANCE SAS,false,48.9447771,2.3059242,Private for profit organisation,648661,Active,8,,PRC,www.thalesgroup.com,0,,,,,92230,AVENUE DES LOUVRESSES 4,Gennevilliers,20000890,FR,,,France,,,,
24.metadata.participants.8,24,participant,984440488,PRISMA ELECTRONICS SA,true,38.9953683,21.9877132,Other,249963.99,Active,9,,PRC,https://www.prismaelectronics.eu/index.php/en/,0,,,,,681 00,DIMOKRATIAS AVENUE 87,ALEXANDROUPOLIS,20000902,EL,,,Greece,,,,
24.metadata.participants.9,24,participant,984366477,TAIPRO ENGINEERING SA,true,50.5913524,5.8328101,Other,201244.43,Active,10,,PRC,www.taipro.be,0,,,,,4800,RUE DES ORMES 151,Lambermont,20000839,BE,,,Belgium,,,,
25.metadata.participants.0,25,coordinator,900364768,ROXEL FRANCE,false,44.8717573,-0.7344502,Private for profit organisation,9502833.06,Active,1,,PRC,www.roxelgroup.com,0,,,,,33160,AVENUE GAY LUSSAC,SAINT-MEDARD-EN-JALLES,20000890,FR,,,France,,,,
26.metadata.participants.0,26,coordinator,899578680,"GAHN LOGISTICA GESTION Y CONSULTORIA, SA",true,40.4536596,-3.6987359,Other,142308.37,Active,1,,PRC,WWW.GAHN.ES,0,,,,,28010,CALLE FORTUNY 5,MADRID,20000883,ES,,,Spain,,,,
26.metadata.participants.1,26,participant,893501048,INSTALAZA S.A.,true,41.652585,-0.869312,Other,1439205.13,Active,2,,PRC,www.instalaza.es,0,,,,,50002,CALLE MONREAL 27,Zaragoza,20000883,ES,,,Spain,,,,
26.metadata.participants.2,26,participant,935534931,SENTECH SRL,true,41.9806778,12.4848467,Other,385114.27,Active,3,,PRC,www.sentech.it,0,,,,,00188,"VIA DI QUARTO PEPERINO, 35",ROMA,20000922,IT,,,Italy,,,,
26.metadata.participants.3,26,participant,936058149,"GUARDIARIS, RACUNALNISKE APLIKACIJE IN SIMULACIJE D.O.O",true,46.0684333,14.5016786203125,Other,275235.62,Active,4,,PRC,http://www.guardiaris.com,0,,,,,1000,KAMNISKA ULICA 39A,LJUBLJANA,20001004,SI,,,Slovenia,,,,
26.metadata.participants.4,26,participant,888612636,GELCO S.P.A.,true,42.4371697,12.094617,Other,385431.91,Active,5,,PRC,www.gelcospa.it,0,,,,,01100,STRADA POGGINO 45/D45/E,Viterbo,20000922,IT,,,Italy,,,,
26.metadata.participants.5,26,participant,893513367,STARTIUN SL,true,40.4167047,-3.7035825,Other,147014,Active,6,,PRC,www.star-robotics.com,0,,,,,2809,CALLE MARIA DE MAEZTU 146 PTL.C 5B,Madrid,20000883,ES,,,Spain,,,,
27.metadata.participants.0,27,coordinator,912608302,PIEDRAFITA SYSTEMS SL,true,40.5048527,-3.5317621,Other,2630777.13,Active,1,,PRC,www.piedrafita.com,0,,,,,28860,CALLE RAMON Y CAJAL 4,Paracuellos de Jarama,20000883,ES,,,Spain,,,,
27.metadata.participants.1,27,participant,893260682,REPACK-S,true,46.56092425,4.9829197019270595,Other,974166.8,Active,2,,PRC,www.repack-s.com,0,,,,,71290,Z.I. DU BOIS BERNOUX,Cuisery,20000890,FR,,,France,,,,
27.metadata.participants.2,27,participant,880611106,PMG PRECISION MECHANICS GROUP GMBH,false,51.0524125,13.5362765,Private for profit organisation,2103385.27,Active,3,,PRC,https://www.aero-parts.de,0,,,,,01723,HUHNDORFER HOHE 21,WILSDRUFF,20000873,DE,,,Germany,,,,
27.metadata.participants.3,27,participant,930074316,RHP TECHNOLOGY GMBH,true,47.9395073,16.4813566,Other,291670.8,Active,4,,PRC,www.rhp-technology.com,0,,,,,2444,FORSCHUNGSZENTRUM SEIBERSDORF GEBAUDE CA,Seibersdorf An Der Leitha,20000832,AT,,,Austria,,,,
28.metadata.participants.0,28,coordinator,999460356,TEKNOLOGISK INSTITUT,false,55.658685,12.273731,Research organisation,709256.42,Active,1,,REC,www.teknologisk.dk,0,,,,,2630,GREGERSENSVEJ 1,Taastrup,20000875,DK,,,Denmark,,,,
28.metadata.participants.1,28,participant,999984059,FRAUNHOFER GESELLSCHAFT ZUR FORDERUNG DER ANGEWANDTEN FORSCHUNG EV,false,48.1322664,11.5296222,Other,498030.78,Active,2,,REC,www.fraunhofer.de,0,,,,,80686,HANSASTRASSE 27C,Munchen,20000873,DE,,,Germany,,,,
28.metadata.participants.2,28,participant,948667082,LORTEK S COOP,false,43.0539687,-2.1795046,Research organisation,544025.69,Active,3,,REC,www.lortek.es,0,,,,,20240,ARRANOMENDIA KALEA 4 A,Ordizia,20000883,ES,,,Spain,,,,
28.metadata.participants.3,28,participant,999977269,TECHNISCHE UNIVERSITEIT EINDHOVEN,false,51.4472659,5.499747,HSE,496899.1,Active,4,,HES,www.tue.nl/en/,0,,,,,5612 AE,GROENE LOPER 3,Eindhoven,20000973,NL,,,Netherlands,,,,
28.metadata.participants.4,28,participant,935416300,CENTER FOR SIKKERHEDSINDUSTRIEN I DANMARK,false,56.4469128,9.4059354,Other,346952.31,Active,5,,OTH,www.censec.dk,0,,,,,8800,GRAVENE 2 1 TH,VIBORG,20000875,DK,,,Denmark,,,,
28.metadata.participants.5,28,participant,932988002,AEROTECNIC METALLIC SL,false,37.448284,-5.9059841,Private for profit organisation,292524.04,Active,6,,PRC,www.aerotecnic.es,0,,,,,41309,CALLE EARLY OVINGTON 16 PARQUE TECNOLOGICO AERONAUTICO AEROPOLIS,La Rinconada,20000883,ES,,,Spain,,,,
28.metadata.participants.6,28,participant,888473247,AMSIS GMBH,true,53.110917900000004,8.859914540834477,Other,321412.26,Active,7,,PRC,www.amsis.de,0,,,,,28359,ROBERT-HOOKE-STRASSE 4,BREMEN,20000873,DE,,,Germany,,,,
28.metadata.participants.7,28,participant,907633754,LISI AEROSPACE ADDITIVE MANUFACTURING,false,44.6966227,-0.4824079,Private for profit organisation,276977.69,Active,8,,PRC,,0,,,,,75012,46-52 QUAI DE LA RAPEE,Paris,20000890,FR,,,France,,,,
28.metadata.participants.8,28,participant,898508382,OHB HELLAS MONOPROSOPI ETAIREIA PERIORISMENIS EFTHINIS,false,38.045574349999995,23.805270162605616,Private for profit organisation,177850.29,Active,9,,PRC,http://www.ohb-hellas.gr,0,,,,,151 24,IMVROU 1,MAROUSI,20000902,EL,,,Greece,,,,
28.metadata.participants.9,28,participant,888363637,GRANGES POWDER METALLURGY GMBH,false,51.0834196,10.4234469,Private for profit organisation,305406.33,Active,10,,PRC,www.granges.com,0,,,,,42553,SIEBENEICKER STRASSE 235,Velbert,20000873,DE,,,Germany,,,,
29.metadata.participants.0,29,coordinator,884432712,ELLINIKA AMYNTIKA SYSTIMATA ANONYMI VIOMICHANIKI KAI EMPORIKI ETAIREIA,false,0.0,0.0,Private for profit organisation,4944247.25,Active,1,,PRC,www.eas.gr,0,,,,,172 37,ILIOUPOLEOS 111,YMITTOU,20000902,EL,,,Greece,,,,
29.metadata.participants.1,29,participant,892624556,MSM EXPORT S.R.O.,false,48.9574049,18.1662967,Private for profit organisation,18449470.66,Active,2,,PRC,www.msm.sk,0,,,,,018 41,STUROVA 925/27,Dubnica nad Vahom,20001005,SK,,,Slovakia,,,,
30.metadata.participants.0,30,coordinator,999981731,DEUTSCHES ZENTRUM FUR LUFT - UND RAUMFAHRT EV,false,50.848867,7.111538417241022,Research organisation,1420096,Active,1,,REC,www.dlr.de,0,,,,,51147,LINDER HOHE,Koln,20000873,DE,,,Germany,,,,
30.metadata.participants.1,30,participant,988808010,AEROSPACE PROPULSION PRODUCTS (A. P.P.) BV,false,51.663963,4.5639028,Private for profit organisation,51325,Active,2,,PRC,www.appbv.nl,0,,,,,4791 RT,WESTELIJKE RANDWEG 25,Klundert,20000973,NL,,,Netherlands,,,,
30.metadata.participants.2,30,participant,999534755,AGENTIA SPATIALA ROMANA,false,44.4361414,26.1027202,Research organisation,117533,Active,3,,REC,www.rosa.ro,0,,,,,010362,MENDELEEV 21-25 SECTORUL 1,Bucuresti,20000994,RO,,,Romania,,,,
30.metadata.participants.3,30,participant,999991819,AIRBUS DEFENCE AND SPACE GMBH,false,48.0459053,11.655792738129307,Private for profit organisation,826084,Active,4,,PRC,www.airbus-group.com,0,,,,,82024,WILLY-MESSERSCHMITT-STRASSE 1,Taufkirchen,20000873,DE,,,Germany,,,,
30.metadata.participants.4,30,participant,999809265,AIRBUS DEFENCE AND SPACE SAS,false,43.6044622,1.4442469,Private for profit organisation,1082267,Active,5,,PRC,www.airbusdefenceandspace.com,0,,,,,31402,31 RUE DES COSMONAUTES ZI DU PALAYS,Toulouse Cedex,20000890,FR,,,France,,,,
30.metadata.participants.5,30,participant,999699558,AIRBUS DEFENCE AND SPACE SA,false,40.3136856,-3.7018334,Private for profit organisation,988063,Active,6,,PRC,www.airbus.com,0,,,,,28906,CALLE AVIOCAR 2,Getafe (Madrid),20000883,ES,,,Spain,,,,
30.metadata.participants.6,30,participant,888343849,ANDØYA SPACEPORT AS,false,69.295009,16.029346,Private for profit organisation,271125,Active,7,,PRC,https://www.andoyaspace.no/,0,,,,,8480,BLEIKSVEIEN 46,ANDENES,20000974,NO,,,Norway,,,,
30.metadata.participants.7,30,participant,931927113,ARIANEGROUP GMBH,false,48.0459958,11.6151899,Private for profit organisation,408724,Active,8,,PRC,www.ariane.group,0,,,,,82024,ROBERT-KOCH-STR. 1,Taufkirchen,20000873,DE,,,Germany,,,,
30.metadata.participants.8,30,participant,932228201,ARIANEGROUP SAS,false,48.99715,1.926708,Private for profit organisation,2553040,Active,9,,PRC,ariane.group,0,,,,,78130,51-61 ROUTE DE VERNEUIL,Les Mureaux,20000890,FR,,,France,,,,
30.metadata.participants.9,30,participant,970256469,BAYERN-CHEMIE GESELLSCHAFTFUR FUR FLUGCHEMISCHE ANTRIEBE MITBESCHRANKTER HAFTUNG,false,48.197888,12.3516386,Private for profit organisation,59750,Active,10,,PRC,www.bayern-chemie.com,0,,,,,84544,LIEBIGSTRASSE 17,Aschau A. Inn,20000873,DE,,,Germany,,,,
30.metadata.participants.10,30,participant,913776473,CREOTECH INSTRUMENTS SPOLKA AKCYJNA,true,52.0503257,21.0197733,Other,1054264,Active,11,,PRC,www.creotech.pl,0,,,,,05-500,UL. JANA PAWLA II 66,PIASECZNO,20000986,PL,,,Poland,,,,
30.metadata.participants.11,30,participant,997698351,DAMEN SCHELDE NAVAL SHIPBUILDING BV,false,51.4467131,3.579396,Private for profit organisation,105006,Active,12,,PRC,www.damennaval.com,0,,,,,4381 NK,DE WILLEM RUYSSTRAAT 99,Vlissingen,20000973,NL,,,Netherlands,,,,
30.metadata.participants.12,30,participant,952900162,D-ORBIT SPA,true,42.6384261,12.674297,Other,406250,Active,13,,PRC,www.deorbitaldevices.com,0,,,,,22037,VIALE RISORGIMENTO 57,Fino Mornasco Co,20000922,IT,,,Italy,,,,
30.metadata.participants.13,30,participant,888812844,EIDEL AS,true,60.3277977,11.2741844,Other,171523,Active,14,,PRC,www.eidel.no,0,,,,,2080,SMED HAGENS VEG 11,Eidsvoll,20000974,NO,,,Norway,,,,
30.metadata.participants.14,30,participant,922504533,ENDUROSAT AD,true,42.6073975,25.4856617,Other,246250,Active,15,,PRC,www.endurosat.com,0,,,,,1404,UL FLORA 1A,Sofia,20000841,BG,,,Bulgaria,,,,
30.metadata.participants.15,30,participant,899018020,EUROPAISCHES INSTITUT FUR WELTRAUMPOLITIK EUROPEAN SPACE POLICY INSTITUTE,true,48.22240855,16.393492612888146,Research organisation,171305,Active,16,,REC,www.espi.or.at,0,,,,,1010,SCHWARZENBERGPLATZ 16/TOP 1.OG,WIEN,20000832,AT,,,Austria,,,,
30.metadata.participants.16,30,participant,987740040,HITEC LUXEMBOURG SA-HITEC,true,49.63636820000001,6.031996498482915,Other,146250,Active,17,,PRC,www.hitec.lu,0,,,,,8212,49 RUE DU BAERENDALL,Mamer,20000945,LU,,,Luxembourg,,,,
30.metadata.participants.17,30,participant,999583546,INSTITUTO NACIONAL DE TECNICA AEROESPACIAL ESTEBAN TERRADAS,false,40.4638351,-3.4757611,Research organisation,130254,Active,18,,REC,www.inta.es,0,,,,,28850,CR TORREJON AJALVIR KM 4 2,Torrejon De Ardoz Madrid,20000883,ES,,,Spain,,,,
30.metadata.participants.18,30,participant,903174373,KONGSBERG DEFENCE & AEROSPACE AS,false,59.6569434,9.6446815,Private for profit organisation,2016675,Active,19,,PRC,www.kongsberg.com,0,,,,,3616,KIRKEGARDSVEIEN 45,Kongsberg,20000974,NO,,,Norway,,,,
30.metadata.participants.19,30,participant,990040007,MBDA ITALIA SPA,false,41.9323544,12.6143339,Private for profit organisation,1004124,Active,20,,PRC,http://www.mbda-systems.com/,0,,,,,00131,VIA MONTE FLAVIO 45,Roma,20000922,IT,,,Italy,,,,
30.metadata.participants.20,30,participant,999988909,NEDERLANDSE ORGANISATIE VOOR TOEGEPAST NATUURWETENSCHAPPELIJK ONDERZOEK TNO,false,52.0822233,4.3257144,Research organisation,1083780,Active,21,,REC,www.tno.nl,0,,,,,2595 DA,ANNA VAN BUERENPLEIN 1,Den Haag,20000973,NL,,,Netherlands,,,,
30.metadata.participants.21,30,participant,891438440,OHB DIGITAL CONNECT GMBH,false,53.0758196,8.8071646,Private for profit organisation,659375,Active,22,,PRC,www.ohb.de/digital,0,,,,,28359,MANFRED-FUCHS-PLATZ 2-4,Bremen,20000873,DE,,,Germany,,,,
30.metadata.participants.22,30,participant,989360037,OHB SYSTEM AG,false,53.1139736,8.8602392,Private for profit organisation,242444,Active,23,,PRC,www.ohb-system.de,0,,,,,28359,UNIVERSITATSALLEE 27-29,Bremen,20000873,DE,,,Germany,,,,
30.metadata.participants.23,30,participant,952502074,PAYLOAD AEROSPACE SL,true,38.2985152,-0.652889,Other,104604,Active,24,,PRC,www.pldspace.com,0,,,,,03203,"CALLE NICOLAS BUSSI 40, ESQ NICOLAS COPERNICO 7, PARC A1, MANZ 49-PARQUE EMPRESARIAL",Elche,20000883,ES,,,Spain,,,,
30.metadata.participants.24,30,participant,890607247,ROCKET FACTORY AUGSBURG AG,false,48.3738655,10.9020489,Private for profit organisation,206625,Active,25,,PRC,rfa.space,0,,,,,86153,BERLINER ALLEE 65,Augsburg,20000873,DE,,,Germany,,,,
30.metadata.participants.25,30,participant,934220290,SAFRAN DATA SYSTEMS,false,48.6841207,2.2213411,Private for profit organisation,180109,Active,26,,PRC,www.safran-electronics-defense.com,0,,,,,91978,5 AVENUE DES ANDES ZONE D'ACTIVITES DE COURTABOEUF,Villejust,20000890,FR,,,France,,,,
30.metadata.participants.26,30,participant,892488077,SIEC BADAWCZA LUKASIEWICZ-INSTYTUT LOTNICTWA,false,52.18930365,20.947366216276286,Research organisation,128000,Active,27,,REC,www.ilot.lukasiewicz.gov.pl,0,,,,,02-256,UL. AL KRAKOWSKA 110/114,WARSZAWA,20000986,PL,,,Poland,,,,
30.metadata.participants.27,30,participant,999987066,STICHTING KONINKLIJK NEDERLANDS LUCHT - EN RUIMTEVAARTCENTRUM,false,52.3451042,4.8438265,Research organisation,945076,Active,28,,REC,www.nlr.nl,0,,,,,1059 CM,ANTHONY FOKKERWEG 2,Amsterdam,20000973,NL,,,Netherlands,,,,
30.metadata.participants.28,30,participant,938861643,TECHNOLOGY FOR PROPULSION AND INNOVATION SRL,true,45.41186635,11.879517648843407,Other,128018,Active,29,,PRC,www.t4innovation.com,0,,,,,35121,VIA ALTINATE 125,Padova,20000922,IT,,,Italy,,,,
30.metadata.participants.29,30,participant,999939051,TELESPAZIO SPA,false,41.9294632,12.5768065,Private for profit organisation,1369357,Active,30,,PRC,www.telespazio.com,0,,,,,00156,VIA TIBURTINA 965,Roma,20000922,IT,,,Italy,,,,
30.metadata.participants.30,30,participant,925001022,UAB KONGSBERG NANOAVIONICS,false,54.7246912,25.3415274,Private for profit organisation,195295,Active,31,,PRC,https://nanoavionics.com/,0,,,,,10224,MOKSLININKU G. 2A,Vilnius,20000944,LT,,,Lithuania,,,,
30.metadata.participants.31,30,participant,897067059,UNIVERSITE PARIS-SACLAY,false,48.70861985,2.1639399055802033,HSE,260075,Active,32,,HES,https://www.universite-paris-saclay.fr/fr,0,,,,,91190,BATIMENT BREGUET - 3 RUE JOLIOT CURIE,Gif-Sur-Yvette,20000890,FR,,,France,,,,
30.metadata.participants.32,30,participant,999497992,VYZKUMNY A ZKUSEBNI LETECKY USTAV AS,false,50.1362632,14.4643177,Research organisation,209369,Active,33,,REC,www.vzlu.cz,0,,,,,19000,LETNANY BERANOVYCH 130,Praha 18,20000872,CZ,,,Czechia,,,,
30.metadata.participants.33,30,thirdParty,997545285,MBDA DEUTSCHLAND GMBH,false,48.5702854,11.2149263052905,Private for profit organisation,202155,Active,20,,PRC,www.mbda-systems.com,0,,,,,86529,HAGENAUER FORST 27,Schrobenhausen,20000873,DE,,,Germany,,,,
30.metadata.participants.34,30,thirdParty,999954668,SAFRAN ELECTRONICS & DEFENSE,false,48.8379593,2.2702424,Private for profit organisation,117697,Active,26,,PRC,www.safran-group.com,0,,,,,75015,2 BOULEVARD DU GENERAL MARTIAL VALIN,Paris,20000890,FR,,,France,,,,
30.metadata.participants.35,30,associatedPartner,892569169,ARIANESPACE SAS,false,48.6306854,2.4294746,Private for profit organisation,0,Active,34,,PRC,www.arianespace.com,0,,,,,91000,BOULEVARD DE L EUROPE,Evry,20000890,FR,,,France,,,,
31.metadata.participants.0,31,coordinator,999959130,INDRA SISTEMAS SA,false,40.52917035,-3.6414349825450647,Private for profit organisation,10216939.75,Active,1,,PRC,www.indracompany.com,0,,,,,28108,AVENIDA DE BRUSELAS 35,Alcobendas Madrid,20000883,ES,,,Spain,,,,
31.metadata.participants.1,31,participant,911716484,ELETTRONICA SPA,false,41.81435465,12.226936957567165,Private for profit organisation,8096247.66,Active,2,,PRC,http://www.elettronicagroup.com/,0,,,,,00131,VIA TIBURTINA VALERIA KM 13.70,Roma,20000922,IT,,,Italy,,,,
31.metadata.participants.2,31,participant,922658084,HENSOLDT SENSORS GMBH,false,48.0473293,11.6572639,Private for profit organisation,7757185.8,Active,3,,PRC,https://www.hensoldt.net,0,,,,,82024,WILLY MESSERSCHMITT STRASSE 3,Taufkirchen,20000873,DE,,,Germany,,,,
31.metadata.participants.3,31,participant,999959615,SAAB AKTIEBOLAG,false,58.4317698,15.5802359,Private for profit organisation,5203874.73,Active,4,,PRC,www.saab.com,0,,,,,581 88,..,Linkoping,20001001,SE,,,Sweden,,,,
31.metadata.participants.4,31,participant,999954862,THALES DMS FRANCE SAS,false,48.7906419,1.9741698,Private for profit organisation,1934134.38,Active,5,,PRC,,0,,,,,78990,2 AVENUE GAY LUSSAC,Elancourt,20000890,FR,,,France,,,,
31.metadata.participants.5,31,participant,968727943,BALTIJOS PAZANGIU TECHNOLOGIJU INSTITUTAS,true,54.6870458,25.2829111,Research organisation,509460.87,Active,6,,REC,http://www.bpti.eu/,0,,,,,LT-01403,PILIES STR 16-8,Vilnius,20000944,LT,,,Lithuania,,,,
31.metadata.participants.6,31,participant,999987066,STICHTING KONINKLIJK NEDERLANDS LUCHT - EN RUIMTEVAARTCENTRUM,false,52.3451042,4.8438265,Research organisation,916370.35,Active,7,,REC,www.nlr.nl,0,,,,,1059 CM,ANTHONY FOKKERWEG 2,Amsterdam,20000973,NL,,,Netherlands,,,,
31.metadata.participants.7,31,participant,999974844,UNIVERSIDAD POLITECNICA DE MADRID,false,40.4167047,-3.7035825,HSE,338484.19,Active,8,,HES,www.upm.es,0,,,,,28040,CALLE RAMIRO DE MAEZTU 7 EDIFICIO RECTORADO,Madrid,20000883,ES,,,Spain,,,,
31.metadata.participants.8,31,participant,999884052,POLITECHNIKA WARSZAWSKA,false,52.221653950000004,21.007357761251072,HSE,834063.7,Active,9,,HES,http://www.pw.edu.pl,0,,,,,00-661,PLAC POLITECHNIKI 1,Warszawa,20000986,PL,,,Poland,,,,
31.metadata.participants.9,31,participant,888863090,XYSENSING SPOLKA Z OGRANICZONA ODPOWIEDZIALNOSCIA,true,52.263049,21.1773705,Other,797279.73,Active,10,,PRC,https://xysensing.pl/,0,,,,,00-665,NOWOWIEJSKA 15/19/022A,Warszawa,20000986,PL,,,Poland,,,,
31.metadata.participants.10,31,participant,949857272,AXTER AEROSPACE SL,true,40.4167047,-3.7035825,Other,340939.5,Active,11,,PRC,www.axteraerospace.com,0,,,,,28011,CALLE SAGRADOS CORAZONES 18,Madrid,20000883,ES,,,Spain,,,,
31.metadata.participants.11,31,participant,896791773,OSAUHING RANTELON,true,59.4372155,24.7453688,Other,491464.27,Active,12,,PRC,www.rantelon.ee,0,,,,,10917,POLLU 132,Tallinn,20000880,EE,,,Estonia,,,,
31.metadata.participants.12,31,participant,897926576,SPIKA TECH SL,true,40.38927285,-3.6564371569759495,Other,506035.7,Active,13,,PRC,https://www.spikatech.com/,0,,,,,28018,CALLE ALCALA GUADAIRA 6 6A,Madrid,20000883,ES,,,Spain,,,,
31.metadata.participants.13,31,participant,907711936,CAFA TECH OU,true,59.4372155,24.7453688,Other,350001.91,Active,14,,PRC,https://cafatech.com,0,,,,,10612,MADARA 29/1,Tallinn,20000880,EE,,,Estonia,,,,
31.metadata.participants.14,31,participant,985086411,WISER TECHNOLOGY SOLUTIONS EOOD,true,42.6073975,25.4856617,Other,526755.48,Active,15,,PRC,https://www.wiser.com/,0,,,,,1784,"SYNERGY TOWER, FL. 15, 111R TSARIGRADSKO SHOSE BLV",SOFIA,20000841,BG,,,Bulgaria,,,,
31.metadata.participants.15,31,participant,999990946,KUNGLIGA TEKNISKA HOEGSKOLAN,false,59.3494088,18.06811,HSE,512559.03,Active,16,,HES,www.kth.se,0,,,,,100 44,BRINELLVAGEN 8,Stockholm,20001001,SE,,,Sweden,,,,
31.metadata.participants.16,31,participant,999649603,CONSORZIO NAZIONALE INTERUNIVERSITARIO PER LE TELECOMUNICAZIONI,false,44.766715,10.3226283,HSE,404136.76,Active,17,,HES,https://www.cnit.it/,0,,,,,43124,VIALE G. P. USBERTI 181A,Parma,20000922,IT,,,Italy,,,,
31.metadata.participants.17,31,participant,935534931,SENTECH SRL,true,41.9806778,12.4848467,Other,146925.63,Active,18,,PRC,www.sentech.it,0,,,,,00188,"VIA DI QUARTO PEPERINO, 35",ROMA,20000922,IT,,,Italy,,,,
31.metadata.participants.18,31,participant,918259522,D.&P. DEVELOPMENT AND PRODUCTION OF ELECTRONIC SYSTEMS SRL,true,41.8082452,12.6803684,Other,117140.56,Active,19,,PRC,www.depelsys.it,0,,,,,00044,VIALE BALILLA 9/10/11,Frascati,20000922,IT,,,Italy,,,,
32.metadata.participants.0,32,coordinator,997636853,INTEGRASYS SA,true,40.5297255,-3.9266948,Other,1059784.96,Active,1,,PRC,www.integrasys-sa.com,0,,,,,28232,"CALLE JOSE ECHEGARAY, NUM. 8 PORTAL 3, PLANTA 1, P LIGONO EMPRESARIAL LAS ROZAS - MATAS PIN AR MONTE ROZAS",Rozas De Madrid,20000883,ES,,,Spain,,,,
32.metadata.participants.1,32,participant,888336380,"AICOX SOLUCIONES, SA",true,40.5412741,-3.6075466,Other,466633.07,Active,2,,PRC,www.aicox.com,0,,,,,28703,AV SOMOSIERRA 12 1A,San Sebastian de los Reyes,20000883,ES,,,Spain,,,,
32.metadata.participants.2,32,participant,894250082,ECLIPTIC DEFENCE AND SPACE LTD,true,35.180282,33.3736958666529,Other,491512.68,Active,3,,PRC,www.ecliptic-ds.com,0,,,,,2221,14 KOZANIS LATSIA,Nicosia,20000871,CY,,,Cyprus,,,,
32.metadata.participants.3,32,participant,888474314,INGESPACE,true,43.78251,1.3590892,Other,863593.22,Active,4,,PRC,www.ingespace.com,0,,,,,31620,30 AVENUE DE MONTAUBAN,Castelnau-D'Estretefonds,20000890,FR,,,France,,,,
32.metadata.participants.4,32,participant,888351221,MEDIA BROADCAST SATELLITE GMBH,true,50.33369175,8.480280034881188,Other,518141.08,Active,5,,PRC,www.mb-satellite.com,0,,,,,61250,Erdfunkstelle 1,Usingen,20000873,DE,,,Germany,,,,
33.metadata.participants.0,33,coordinator,989892082,EURENCO BOFORS AKTIEBOLAG,false,59.31817725,14.607574021709762,Private for profit organisation,6939491,Active,1,,PRC,www.eurenco.com,0,,,,,691 86,KONTORSVAGEN 4,KARLSKOGA,20001001,SE,,,Sweden,,,,
34.metadata.participants.0,34,coordinator,996169922,GEONUMERICS SL,true,41.274725950000004,1.9866560499999983,Other,1698321.03,Active,1,,PRC,www.geonumerics.com,0,,,,,08860,AV CARL FRIEDRICH GAUSS 11,Castelldefels Barcelona,20000883,ES,,,Spain,,,,
34.metadata.participants.1,34,participant,999997930,CENTRE NATIONAL DE LA RECHERCHE SCIENTIFIQUE CNRS,false,48.8476256,2.2640027,Research organisation,757325.13,Active,2,,REC,www.cnrs.fr,0,,,,,75794,RUE MICHEL ANGE 3,Paris,20000890,FR,,,France,,,,
34.metadata.participants.2,34,participant,934691128,CIVITANAVI SYSTEMS SPA,true,43.2560414,13.7242644,Other,893038.6,Active,3,,PRC,www.civitanavi.com,0,,,,,63821,VIA DELLA TECNOLOGIA 2 4,PORTO SANT'ELPIDIO,20000922,IT,,,Italy,,,,
34.metadata.participants.3,34,participant,952724689,GEOMATICS RESEARCH & DEVELOPMENT SRL,true,45.6947981,9.0357113,Other,257540.55,Active,4,,PRC,www.g-red.eu,0,,,,,22074,VIA CAVOUR 2,Lomazzo,20000922,IT,,,Italy,,,,
34.metadata.participants.4,34,participant,916806947,IQUA ROBOTICS SOCIEDAD LIMITADA,true,41.9588719,2.8197776,Other,249491.63,Active,5,,PRC,www.iquarobotics.com,0,,,,,17003,CALLE PIC DE PEGUERA EDIF GIROE NUM 11,Girona,20000883,ES,,,Spain,,,,
35.metadata.participants.0,35,coordinator,971000459,RHEINMETALL WAFFE MUNITION GMBH,false,52.834578,10.297171,Private for profit organisation,20560755.45,Active,1,,PRC,https://www.rheinmetall.com,0,,,,,29345,HEINRICH EHRHARDT STRASSE 2,UNTERLUSS,20000873,DE,,,Germany,,,,
36.metadata.participants.0,36,coordinator,920796363,NEX VISION,true,43.2340735,5.4498978,Other,1590607.56,Active,1,,PRC,http://nexvision.fr/,0,,,,,13009,IMPASSE PARADOU VALAD PARC MLLE SUD,Marseille,20000890,FR,,,France,,,,
36.metadata.participants.1,36,participant,951738781,TWOPTICS SYSTEMS DESIGN SL,true,40.4167047,-3.7035825,Other,566195.82,Active,2,,PRC,www.twoptics.com,0,,,,,28046,PASEO DE LA CASTELLANA 79 7,Madrid,20000883,ES,,,Spain,,,,
36.metadata.participants.2,36,participant,912867001,HELLENIC INSTRUMENTS IKE,true,38.9953683,21.9877132,Other,420625.55,Active,4,,PRC,www.hellenicinstruments.com,0,,,,,194 00,3 XLM 3RD KLM VARIS-KOROPIOU AVE,KOROPI,20000902,EL,,,Greece,,,,
36.metadata.participants.3,36,participant,889231496,AMPHINICY LUXEMBOURG SARL,true,49.6517365,6.1250285,Other,336269.49,Active,5,,PRC,www.amphinicy.com,0,,,,,7243,74 RUE DU DIX OCTOBRE,Walferdange,20000945,LU,,,Luxembourg,,,,
36.metadata.participants.4,36,participant,880362204,LAMBDA-X HIGH TECH,true,50.58916295,4.331909175863107,Other,522430.21,Active,6,,PRC,www.hightech.lambda-x.com,0,,,,,1400,AVENUE ROBERT SCHUMAN 102,NIVELLES,20000839,BE,,,Belgium,,,,
37.metadata.participants.0,37,coordinator,892662580,KNDS AMMO ITALY SPA,false,41.727033,13.0041576,Private for profit organisation,24599570.98,Active,1,,PRC,https://www.knds.fr/en/our-brand/knds-ammo-italy-spa,0,,,,,00034,VIA ARIANA KM 5 200,Colleferro,20000922,IT,,,Italy,,,,
37.metadata.participants.1,37,participant,893906605,KNDS AMMO FRANCE,false,48.7852298,2.1055172,Private for profit organisation,387813.74,Active,2,,PRC,https://www.knds.fr/en/our-brand/knds-france,0,,,,,78000,13 ROUTE DE LA MINIERE,Versailles,20000890,FR,,,France,,,,
37.metadata.participants.2,37,participant,986597186,NAMMO RAUFOSS AS,false,60.7308399,10.604041,Private for profit organisation,9417811.93,Active,3,,PRC,www.nammo.com,0,,,,,2830,ENGGATA 37,Raufoss,20000974,NO,,,Norway,,,,
37.metadata.participants.3,37,participant,880487528,NAMMO VIHTAVUORI OY,false,62.3709678,25.9049979,Private for profit organisation,6093275.56,Active,4,,PRC,VIHTAVUORI.COM,0,,,,,41330,RUUTITEHTAANTIE 80,VIHTAVUORI,20000885,FI,,,Finland,,,,
37.metadata.participants.4,37,participant,879850917,VALSTS AIZSARDZIBAS KORPORACIJA,true,56.9580167,24.1161973,Other,889553.78,Active,5,,PRC,www.defencecorporation.lv,0,,,,,LV-1010,KRISJANA VALDEMARA IELA 18 - 33,RIGA,20000946,LV,,,Latvia,,,,
38.metadata.participants.0,38,coordinator,904215377,TRACASA INSTRUMENTAL SL,false,42.815270299999995,-1.606735199999986,Private for profit organisation,557319.69,Active,1,,PRC,www.itracasa.es,0,,,,,31621,CALLE CABARCENO 6,Sarriguren,20000883,ES,,,Spain,,,,
38.metadata.participants.1,38,participant,999537083,EUROPEAN UNION SATELLITE CENTRE,false,40.4706839,-3.4507365,Other,405234.61,Active,2,,PUB,www.satcen.europa.eu,0,,,,,28850,AVENIDA DE CADIZ ED 457-BASE AEREA DE TORREJON,Torrejon De Ardoz,20000883,ES,,,Spain,,,,
38.metadata.participants.2,38,participant,996410094,ZABALA INNOVATION CONSULTING SA,false,42.80054605,-1.6218704382256652,Private for profit organisation,299422.58,Active,3,,PRC,www.zabala.es,0,,,,,31192,PASEO SANTXIKI 3 BIS,Mutilva Alta Navarra,20000883,ES,,,Spain,,,,
38.metadata.participants.3,38,participant,932516485,EVENFLOW,true,50.8361447,4.3861737,Other,171090.62,Active,4,,PRC,www.evenflow.eu,0,,,,,1040,"RUE DE LA LOI 26, BOITE 7",Etterbeek,20000839,BE,,,Belgium,,,,
38.metadata.participants.4,38,participant,999951467,RINA CONSULTING SPA,false,44.3978232,8.9489585,Private for profit organisation,368560,Active,5,,PRC,www.rina.org,0,,,,,16129,VIA CECCHI 6,Genova,20000922,IT,,,Italy,,,,
38.metadata.participants.5,38,participant,998526343,PLANETEK HELLAS ETAIREIA PERIORISMENIS EFTHYNIS YPIRESIES CHARTOGRAFISIS MESO DORYFOROU,true,38.045574349999995,23.805270162605616,Other,325000,Active,6,,PRC,www.planetek.gr,0,,,,,15125,LEOFOROS KIFISSIAS 44,Maroussi,20000902,EL,,,Greece,,,,
38.metadata.participants.6,38,participant,999976590,UNIVERSITA DEGLI STUDI DI NAPOLI FEDERICO II,false,40.8457116,14.2587971,HSE,166562.51,Active,7,,HES,www.unina.it,0,,,,,80138,"CORSO UMBERTO I, 40",Napoli,20000922,IT,,,Italy,,,,
38.metadata.participants.7,38,participant,999981537,JOANNEUM RESEARCH FORSCHUNGSGESELLSCHAFT MBH,false,47.07424325,15.455243588843995,Research organisation,235590.51,Active,8,,REC,www.joanneum.at,0,,,,,8010,LEONHARDSTRASSE 59,Graz,20000832,AT,,,Austria,,,,
38.metadata.participants.8,38,participant,998710352,CENTRUM BADAN KOSMICZNYCH POLSKIEJ AKADEMII NAUK,false,52.21304695,21.067816484926958,Research organisation,229975,Active,9,,REC,http://www.cbk.waw.pl,0,,,,,00 716,BARTYCKA  18 A,Warszawa,20000986,PL,,,Poland,,,,
38.metadata.participants.9,38,thirdParty,996328905,TRABAJOS CATASTRALES SA SOCIEDAD UNIPERSONAL,false,42.815270299999995,-1.606735199999986,Private for profit organisation,530370.4,Active,1,,PRC,www.tracasa.es,0,,,,,31621,CALLE CABARCENO 6,Sarriguren,20000883,ES,,,Spain,,,,
39.metadata.participants.0,39,coordinator,950043221,GE AVIO SRL,false,44.9942767,7.4976476,Private for profit organisation,3548375,Active,1,,PRC,www.avioaero.com,0,,,,,10040,VIA I MAGGIO 99,Rivalta Di Torino,20000922,IT,,,Italy,,,,
39.metadata.participants.1,39,participant,998627417,LEONARDO - SOCIETA PER  AZIONI,false,41.9182673,12.4690749,Private for profit organisation,3840000,Active,2,,PRC,www.leonardo.com,0,,,,,00195,PIAZZA MONTE GRAPPA 4,Roma,20000922,IT,,,Italy,,,,
39.metadata.participants.2,39,participant,999959615,SAAB AKTIEBOLAG,false,58.4317698,15.5802359,Private for profit organisation,7547145,Active,3,,PRC,www.saab.com,0,,,,,581 88,..,Linkoping,20001001,SE,,,Sweden,,,,
39.metadata.participants.3,39,participant,999984641,GKN AEROSPACE SWEDEN AB,false,58.2827931,12.2908612,Private for profit organisation,4000000,Active,4,,PRC,www.gknaerospace.com,0,,,,,46181,-,Trollhaettan,20001001,SE,,,Sweden,,,,
39.metadata.participants.4,39,participant,992602068,PACE AEROSPACE ENGINEERING AND INFORMATION TECHNOLOGY GMBH,false,52.518387399999995,13.284946855929391,Private for profit organisation,1630000,Active,5,,PRC,http://www.pacelab.com,0,,,,,14059,AM  BAHNHOF WESTEND 13,Berlin,20000873,DE,,,Germany,,,,
39.metadata.participants.5,39,participant,913125312,"""INSTITUTUL NATIONAL DE CERCETARE-DEZVOLTARE AEROSPATIALA """"ELIE CARAFOLI""""- INCAS BUCURESTI""",false,44.43726235,25.999839764746476,Research organisation,840000,Active,6,,REC,www.incas.ro,0,,,,,061126,"SECTOR 6, B-DUL IULIU MANIU NR. 220",Bucuresti,20000994,RO,,,Romania,,,,
39.metadata.participants.6,39,participant,999977754,POLITECNICO DI TORINO,false,45.0566406,7.6583305,HSE,1499323.75,Active,7,,HES,www.polito.it,0,,,,,10129,CORSO DUCA DEGLI ABRUZZI 24,Torino,20000922,IT,,,Italy,,,,
39.metadata.participants.7,39,participant,893979743,ARTTIC INNOVATION GMBH,false,48.14599825,11.576024898508594,Private for profit organisation,567625,Active,8,,PRC,,0,,,,,80333,OSKAR-VON-MILLER-RING 29,Munchen,20000873,DE,,,Germany,,,,
39.metadata.participants.8,39,participant,892488077,SIEC BADAWCZA LUKASIEWICZ-INSTYTUT LOTNICTWA,false,52.18930365,20.947366216276286,Research organisation,1350000,Active,9,,REC,www.ilot.lukasiewicz.gov.pl,0,,,,,02-256,UL. AL KRAKOWSKA 110/114,WARSZAWA,20000986,PL,,,Poland,,,,
39.metadata.participants.9,39,participant,999698006,VON KARMAN INSTITUTE FOR FLUID DYNAMICS,false,50.75496765,4.386305156499031,Research organisation,3862825,Active,10,,REC,www.vki.ac.be,0,,,,,1640,"Waterloose Steenweg, 72",Sint-Genesius-Rode,20000839,BE,,,Belgium,,,,
39.metadata.participants.10,39,participant,985954464,MODELON AB,true,55.7142619,13.215457794710293,Other,716625,Active,11,,PRC,www.modelon.com,0,,,,,22370,IDEON SCIENCE PARK,Lund,20001001,SE,,,Sweden,,,,
39.metadata.participants.11,39,participant,972374173,GENERAL IMPIANTI SRL,false,43.4965463,13.1325221,Private for profit organisation,1196250,Active,12,,PRC,www.loccioni.com,0,,,,,60030,VIA COLLEFREDDO 8/9,Maiolati Spontini An,20000922,IT,,,Italy,,,,
39.metadata.participants.12,39,participant,999895789,UNIVERSITA DEGLI STUDI DI FIRENZE,false,43.7778118,11.2594064,HSE,1050000,Active,13,,HES,http://www.unifi.it,0,,,,,50121,Piazza San Marco  4,Florence,20000922,IT,,,Italy,,,,
39.metadata.participants.13,39,participant,999879881,POLITECNICO DI MILANO,false,45.4777353,9.2276764,HSE,549905,Active,14,,HES,www.polimi.it,0,,,,,20133,PIAZZA LEONARDO DA VINCI 32,Milano,20000922,IT,,,Italy,,,,
39.metadata.participants.14,39,participant,888559189,ATLA SRL,false,44.9953621,7.8155813,Private for profit organisation,700000,Active,15,,PRC,www.atla.it,0,,,,,10023,VIA SECONDO CASELLE 10,Chieri,20000922,IT,,,Italy,,,,
39.metadata.participants.15,39,participant,949857272,AXTER AEROSPACE SL,true,40.4167047,-3.7035825,Other,1354750,Active,16,,PRC,www.axteraerospace.com,0,,,,,28011,CALLE SAGRADOS CORAZONES 18,Madrid,20000883,ES,,,Spain,,,,
39.metadata.participants.16,39,participant,999789768,C.I.R.A. CENTRO ITALIANO RICERCHE AEROSPAZIALI SCPA,false,41.1157452,14.190345,Research organisation,1380000,Active,17,,REC,www.cira.it,0,,,,,81043,VIA MAIORISE,Capua,20000922,IT,,,Italy,,,,
39.metadata.participants.17,39,participant,999990946,KUNGLIGA TEKNISKA HOEGSKOLAN,false,59.3494088,18.06811,HSE,500000,Active,18,,HES,www.kth.se,0,,,,,100 44,BRINELLVAGEN 8,Stockholm,20001001,SE,,,Sweden,,,,
